,Unnamed: 0,villeID,size,lat,long
477,477,Vostochnyy,7622,58.78811,52.24513
481,481,Urman,2509,54.88314,56.87417
485,485,Tolbazy,10183,54.02408,55.88248
501,501,Sim,15632,54.993,57.6982
502,502,Shentala,6595,54.45,51.48333
514,514,Okhansk,7920,57.7203,55.3882
521,521,Muslyumovo,7406,55.30333,53.19472
534,534,Kropachëvo,5252,55.0112,57.9896
537,537,Krasnyy Klyuch,2348,55.38625,56.65287
545,545,Karagay,6586,58.26669,54.93678
775,775,Belorechensk,1473,58.77251,52.29357
777,777,Atig,3842,56.69307,59.42271
792,792,Yemanzhelinsk,29849,54.75472,61.32083
793,793,Verkhnyaya Sinyachikha,10964,57.97604,61.66733
794,794,Uyar,13167,55.8118,94.3247
795,795,Sherkaly,1361,62.75806,65.47528
796,796,Severka,3325,56.8688,60.3015
797,797,Saranpaul’,2985,64.26102,60.90233
798,798,Rostovka,5423,55.3842,71.88913
799,799,Polunochnoye,2848,60.86972,60.41528
800,800,Pervomayskiy,5238,52.9173,81.6624
801,801,Pelym,3647,61.01083,61.99778
802,802,Novobiryusinskiy,4855,56.9578,97.7076
803,803,Novichikha,4460,52.204,81.3877
804,804,Norilsk,140800,69.3535,88.2027
805,805,Muslyumovo,4500,55.6133,61.626
806,806,Motygino,6625,58.18401,94.69339
807,807,Mishkino,8712,55.33889,63.9175
808,808,Minusinsk,72781,53.71028,91.6875
809,809,Krasnogvardeyskiy,4746,57.37928,62.31952
810,810,Klyuchi,9205,52.25303,79.16868
811,811,Isetskoye,7170,56.4858,65.3226
812,812,Choya,1930,52.0108,86.5467
813,813,Burla,4682,53.3362,78.3301
814,814,Borovikha,6712,53.5072,83.8379
815,815,Bogashevo,3773,56.36798,85.14414
816,816,Bogandinskiy,9586,56.89375,65.89378
817,817,Berëzovka,1243,52.35111,85.82722
818,818,Belyy Yar,8245,58.44472,85.0425
819,819,Lokomotivnyy,10663,53.0118,60.5684
820,820,Zabaykal’sk,10563,49.6513,117.32557
821,821,Volochayevka Vtoraya,1971,48.56695,134.58232
822,822,Verkhnevilyuysk,6341,63.44578,120.30739
823,823,Ushumun,2808,52.78633,126.53767
824,824,Tyret’ Pervaya,4082,53.67028,102.31056
825,825,Tynda,37335,55.156,124.72479
826,826,Tiksi,5700,71.69002,128.86467
827,827,Solnechnyy,13993,50.58333,137.03333
828,828,Slavyanka,14687,42.86413,131.3882
829,829,Shimanovsk,21466,52.00575,127.67756
830,830,Primorskiy,1708,43.09962,131.58938
831,831,Pivovarikha,2600,52.27056,104.44583
832,832,Novyy Zagan,2000,51.02858,107.76376
833,833,Mnogovershinnyy,2719,53.93345,139.9274
834,834,Magdagachi,11739,53.45398,125.80932
835,835,Kotik,1500,54.65057,100.45395
836,836,Blagodatnoye,2443,44.32285,132.0905
837,837,Khabarovsk Vtoroy,578303,48.43776,135.13329
838,838,Uglezavodsk,1610,47.32332,142.63317
839,839,Tymovskoye,8030,50.84925,142.6652
840,840,Ozernovskiy,2615,51.49604,156.50102
848,848,Takamaka,2580,-4.76667,55.5
924,924,Mae Hong Son,9109,19.30029,97.96852
925,925,Chom Bueng,15143,13.62,99.59169
927,927,Nong Kung Si,17001,16.65,103.3
939,939,Kao Liao,4988,15.85053,100.07914
947,947,Bokhtar,110800,37.83667,68.7775
948,948,Boshkengash,23696,38.46613,68.80533
949,949,Tursunzoda,37000,38.51271,68.23163
1068,1068,Koseda,2345,30.38796,130.64924
1069,1069,Kanda,36122,33.78333,130.98333
1070,1070,Kakamigahara,132241,35.41667,136.86667
1071,1071,Isawa,29616,35.65,138.63333
1072,1072,Imarichō-kō,57940,33.27362,129.87877
1073,1073,Ibaraki,280562,34.81641,135.56828
1074,1074,Hiratsuka,257316,35.32785,139.33735
1075,1075,Fukuyama,468812,34.48333,133.36667
1076,1076,Fujioka,18335,36.25,139.65
1077,1077,Okinawa,125483,26.33583,127.80139
1078,1078,Yuzawa,44346,39.16667,140.5
1079,1079,Yonezawa,94486,37.91,140.11667
1080,1080,Yōkaichiba,32651,35.7,140.55
1081,1081,Ōtsuchi,11572,39.36667,141.9
1082,1082,Miharu,17471,37.43333,140.48333
1083,1083,Makabe,19293,36.26667,140.1
1084,1084,Abiko,131771,35.86667,140.01667
1085,1085,Rausu,5395,44.01806,145.19197
1086,1086,Nakatonbetsu,1776,44.97413,142.29263
1087,1087,Rittō,70312,35.02745,135.99971
1090,1090,Hachimantai,25076,39.89979,141.12989
1091,1091,Arashiyama,50000,35.01481,135.67755
1092,1092,Hatsudai,8629,35.67729,139.68588
1093,1093,Iga,88895,34.75797,136.13468
1104,1104,Balykchy,42875,42.46017,76.18709
1113,1113,Kosan,24822,38.85583,127.41806
1115,1115,Hoemul-li,11681,41.43389,129.67
1116,1116,Komusan Il-tong,12242,42.10914,129.69997
1118,1118,Yeonil,34560,36.00446,129.3185
1119,1119,Yangp'yŏng,83367,37.48972,127.49056
1120,1120,Waegwan,29691,35.99251,128.39785
1122,1122,Muan,75718,34.99014,126.47899
1123,1123,Gangneung,180611,37.75266,128.87239
1124,1124,Hwado,106358,37.6525,127.3075
1125,1125,Wabu,96775,37.58972,127.22028
1131,1131,Tasqala,6980,51.11073,50.29454
1132,1132,Beyneu,14245,45.31667,55.2
1133,1133,Aktobe,500757,50.27969,57.20718
1134,1134,Zhosaly,20065,45.48778,64.07806
1135,1135,Zhitikara,43104,52.19019,61.19894
1137,1137,Sarykamys,4038,47.78333,78.71667
1138,1138,Qarqaraly,8195,49.41244,75.47228
1139,1139,Pervomayka,7874,43.37361,76.94
1140,1140,Novodolinskiy,5167,49.7065,72.70807
1141,1141,Kokterek,2384,42.49442,70.25478
1142,1142,Korday,9821,43.03882,74.71287
1144,1144,Aqtoghay,4974,46.95068,79.67621
1145,1145,Aksu,8543,52.44422,71.95761
1146,1146,Pakse,88332,15.12022,105.79898
1150,1150,Ja Ela,32175,7.0744,79.8919
1151,1151,Bogahakumbura,1500,7.0869,81.022
1152,1152,Badulla,47587,6.9802,81.0577
1210,1210,Thayetmyo,98185,19.32076,95.18272
1211,1211,Letpandan,38936,17.78664,95.75076
1212,1212,Pathein,237089,16.77919,94.73212
1220,1220,Bulgan,17348,48.8125,103.53472
1233,1233,Maafushi,3000,3.94231,73.4907
1439,1439,Sampaloc,2206,15.81667,120.86667
1440,1440,Saguing,5073,6.98028,125.07806
1441,1441,Polo,2631,6.26472,125.1125
1442,1442,Polahongon,2730,10.5288,124.9694
1444,1444,Pinagsibaan,2671,13.83479,121.32118
1445,1445,Pawa,2123,13.1335,123.8915
1446,1446,Patrocinio,3325,8.6125,124.84556
1447,1447,Patnongon,5810,10.9132,121.9937
1448,1448,Paracelis,4232,17.26667,121.46667
1449,1449,Panitan,5156,11.466,122.7725
1450,1450,Palomoc,2147,7.9153,122.5829
1451,1451,Palestina,4418,13.6117,123.249
1452,1452,Palahanan Uno,3404,13.83113,121.35639
1453,1453,Pagsanghan,8024,11.9657,124.7212
1454,1454,New Agutaya,2464,10.56139,119.30778
1455,1455,Nagpandayan,3140,15.60138,120.76893
1456,1456,Muricay,132094,7.8275,123.4782
1457,1457,Morobuan,2442,10.62566,122.5547
1458,1458,Monpon,2189,10.91194,122.63778
1459,1459,Maturanoc,4912,15.6571,120.7921
1460,1460,Masalipit,2532,15.1481,121.0373
1461,1461,Mariveles,84567,14.43385,120.48569
1462,1462,Makiwalo,4614,12.5101,124.706
1463,1463,Manuangan,4422,7.27694,124.40444
1464,1464,Manolo Fortich,27064,8.36972,124.86444
1465,1465,Manika,3074,11.38801,122.27931
1466,1466,Manga,2211,17.70123,121.86048
1467,1467,Manaul,3011,12.453,121.4107
1468,1468,Manalad,3151,10.0056,122.7769
1469,1469,Malamote,3098,7.07389,124.94
1470,1470,Malalag,6180,6.59583,125.39917
1471,1471,Macalva Norte,2874,16.3485,120.3866
1472,1472,Mabunga,2997,13.8634,122.0677
1473,1473,Maao,25837,10.4896,122.9907
1474,1474,Lut-od,2418,10.25722,123.62944
1475,1475,Lumazal,3876,5.88528,124.84944
1476,1476,Looc,3092,14.1648,120.6293
1477,1477,Logon,3644,11.3303,124.1146
1478,1478,Libona,5713,8.33889,124.73528
1479,1479,Libertad,2383,11.03639,124.56833
1480,1480,Libacao,4796,10.18,122.9137
1481,1481,Lavezares,4082,12.5336,124.3305
1482,1482,La Union,5221,6.70413,126.08798
1483,1483,La Paz,3405,17.6746,120.6864
1484,1484,La Paz,2782,7.31583,125.73333
1485,1485,Labog,3466,9.0558,118.0495
1487,1487,Kauswagan,2939,8.51667,125.75
1488,1488,Kalanganan,2331,8.08333,124.24667
1489,1489,Jamabalod,2742,10.8788,122.6212
1490,1490,Jagupit,2157,9.24222,125.55806
1491,1491,Inayagan,6610,10.23478,123.769
1492,1492,Imbang,2038,10.7967,123.0213
1494,1494,Gonzaga,7228,18.25937,121.99495
1495,1495,Gloria,6137,12.98333,121.46667
1496,1496,Gang,3317,7.24583,124.26639
1497,1497,Gamut,2246,9.00444,126.16972
1499,1499,Dolores,2378,17.6477,120.7091
1502,1502,Dorsalanam,3595,8.30667,124.58556
1503,1503,Cuambog,6383,7.30861,125.84806
1504,1504,Conduaga,5164,8.862,117.4893
1505,1505,Concepcion,64402,15.32546,120.65723
1506,1506,Claver,5906,9.5725,125.73306
1507,1507,Cervantes,2520,10.8726,123.5209
1508,1508,Cavite City,115932,14.48369,120.89878
1509,1509,Castillo,4203,13.7313,123.1166
1510,1510,Capas,72070,15.33117,120.5898
1511,1511,Canan Norte,2780,15.90986,120.47763
1512,1512,Caloocan City,1500000,14.64953,120.96788
1513,1513,Calibutbut,5282,15.11494,120.59815
1514,1514,Calero,3232,10.37331,123.99786
1515,1515,Calantas,2564,13.97202,120.77456
1516,1516,Calangain,2526,14.89815,120.55877
1517,1517,Calancuasan Norte,2453,15.80137,120.64102
1518,1518,Calampisauan,2382,10.60985,123.4765
1519,1519,Cafe,2339,15.33686,120.70623
1520,1520,Cabilao,2668,11.5396,123.1436
1521,1521,Cabiguan,2270,12.90583,123.73139
1522,1522,Cabanatuan City,327325,15.48586,120.96648
1523,1523,Buyabod,2991,13.4666,122.0526
1524,1524,Buracan,2309,13.6,123.5
1525,1525,Bungoy,3591,13.99779,121.36564
1526,1526,Bunga,2025,10.7731,124.7847
1527,1527,Buenavista,4087,10.70111,122.6275
1528,1528,Botolan,22994,15.2896,120.0245
1529,1529,Bulawin,3612,15.4173,119.9564
1530,1530,Binmaley,44026,16.03232,120.26904
1531,1531,Bincoñgan,3810,7.36667,125.75
1532,1532,Batac City,55484,18.0554,120.56489
1533,1533,Basag,2799,8.92548,125.62167
1534,1534,Barira,3717,7.48722,124.29917
1535,1535,Banos,2340,12.64553,120.90972
1537,1537,Banga,2058,10.5018,122.8289
1538,1538,Banawang,2306,14.6121,120.39
1539,1539,Balingasag,9722,8.74417,124.77694
1540,1540,Balbalan,2195,17.44139,121.20194
1541,1541,Balaoan,2928,16.8219,120.4045
1542,1542,Balagtasin,4050,13.9018,121.0889
1543,1543,Bail,2120,16.2867,120.4004
1544,1544,Leon Postigo,3771,8.1551,122.9311
1546,1546,Awang,8417,7.15306,124.22111
1547,1547,Aumbay,3397,7.1026,125.7837
1548,1548,Atipuluhan,3940,10.51336,122.9621
1549,1549,Asturias,7779,10.5669,123.7161
1550,1550,Aras-asan,5099,8.88781,126.3112
1551,1551,Aranda,3100,10.2365,122.9467
1552,1552,Aparri,33230,18.3566,121.6406
1553,1553,Alemanguan,3324,10.61177,119.3268
1554,1554,Alacaygan,2598,10.84014,123.0583
1555,1555,Agusan,14756,8.49056,124.73722
1556,1556,Abaca,2139,11.1342,122.7156
1557,1557,Landang Laum,3542,6.96889,122.24917
1558,1558,Sanga-Sanga,5295,5.0725,119.78528
1559,1559,Lanipao,4114,7.95528,123.77667
1560,1560,Del Pilar,4062,7.56306,125.82667
1562,1562,Daguma,3785,6.60345,124.5702
1563,1563,Sialkot,477396,32.49268,74.53134
1564,1564,Sharqpur Sharif,31855,31.46116,74.10091
1565,1565,Ranipur,22495,27.2872,68.50623
1566,1566,Rajo Khanani,7683,24.98391,68.8537
1567,1567,Goth Phulji,7877,26.88099,67.68239
1568,1568,Mian Sahib,25000,28.15341,68.64182
1569,1569,Malir Cantonment,300000,24.94343,67.20591
1570,1570,Madeji,14802,27.75314,68.45166
1571,1571,Lachi,18537,33.38291,71.33733
1572,1572,Kasur,290643,31.11866,74.45025
1573,1573,Kaleke Mandi,16361,31.97597,73.59999
1574,1574,Kalabagh,15976,32.96164,71.54638
1752,1752,Al Wakrah,26436,25.17151,51.60337
1753,1753,Al Jumaylīyah,1788,25.61068,51.09108
1929,1929,Kuah,30212,6.32649,99.8432
1930,1930,Papar,19278,5.73333,115.93333
1931,1931,Pekan,31826,3.4836,103.3996
1932,1932,Nibong Tebal,40072,5.16586,100.47793
1933,1933,Parit Buntar,27313,5.12671,100.49316
1934,1934,Klebang Besar,38643,2.2186,102.1995
1935,1935,Kampong Kadok,19233,6.0,102.25
2023,2023,Biratnagar,244750,26.45505,87.27007
2024,2024,Nepalgunj,166258,28.05,81.61667
2038,2038,Sohar,108274,24.34745,56.70937
2039,2039,‘Ibrī,163473,23.22573,56.51572
2040,2040,Ibrā’,25265,22.69057,58.53337
2104,2104,Popondetta,28198,-8.76536,148.23252
2107,2107,Villanueva,2592,15.79841,120.54654
2108,2108,Villamor,2409,6.7038,124.52009
2109,2109,Urdaneta,101037,15.97611,120.57111
2110,2110,Tupang,2213,17.90483,121.64099
2112,2112,Trapiche,11539,10.68417,122.43222
2113,2113,Tignoan,4164,14.56522,121.61786
2114,2114,Talalora,2186,11.5293,124.8362
2115,2115,Tadian,2803,16.9956,120.8203
2116,2116,Tabon,3801,9.23877,117.9946
2117,2117,Tabango,5806,11.3077,124.373
2120,2120,Saaban,2527,13.13049,121.36872
2121,2121,Sipalay,24029,9.75194,122.40417
2493,2493,Gero,35000,35.8,137.23333
2494,2494,Yakage,14041,34.62849,133.59237
2495,2495,Wake,14191,34.81156,134.14264
2496,2496,Uto,37442,32.68333,130.66667
2497,2497,Tsuma,34318,32.1,131.4
2498,2498,Togitsu,30084,32.83333,129.85
2499,2499,Tarui,27439,35.36667,136.53333
2500,2500,Takayama,88473,36.13333,137.25
2501,2501,Takatsuki,354468,34.84833,135.61678
2502,2502,Susaki,26195,33.39471,133.29128
2503,2503,Shōbara,33476,34.85,133.01667
2504,2504,Shibushi,30231,31.476,131.10114
2506,2506,Sanjō,82893,37.61667,138.95
2507,2507,Sakaki,15025,36.46667,138.18333
2508,2508,Nara-shi,367353,34.68505,135.80485
2509,2509,Nagata,1192,30.39516,130.42548
2510,2510,Nagahama,62089,35.38333,136.26667
2511,2511,Mihara,80387,34.4,133.08333
2512,2512,Matsuzaki,6563,34.75326,138.77613
2513,2513,Maki,29041,37.75,138.88333
2514,2514,Kushikino,25744,31.71667,130.26667
2515,2515,Keshorai Pātan,23464,25.29275,75.93948
2516,2516,Kasrāwad,21484,22.12745,75.61101
2517,2517,Kareli,27808,22.91533,79.06378
2518,2518,Kapūrthala,92667,31.38011,75.38105
2519,2519,Kānor,13089,24.43437,74.26546
2521,2521,Kāndra,6902,22.8517,86.05192
2522,2522,Kāmāreddi,71042,18.32001,78.34177
2523,2523,Kamalpur,5508,24.19593,91.83438
2524,2524,Kālna,53964,23.21944,88.36295
2525,2525,Kanīna Khās,10815,28.33093,76.31099
2526,2526,Kalamb,27287,19.04437,73.95554
2527,2527,Jūnāgadh,184447,21.51966,70.45981
2528,2528,Shādīpur Julāna,14508,29.12368,76.40516
2529,2529,Jayamkondacholapuram,32217,11.21266,79.36369
2530,2530,Jamkhandi,61690,16.50461,75.29146
2531,2531,Jagdīshpur,31029,26.74967,80.5451
2532,2532,Jagalūr,15787,14.51957,76.33915
2533,2533,Islāmnagar,29144,28.32896,78.72524
2534,2534,Idukki,11248,9.85,76.96667
2535,2535,Ichalkaranji,274383,16.69117,74.46054
2536,2536,Narmadapuram,109358,22.74747,77.72736
2537,2537,Hāveri,60155,14.79354,75.40448
2538,2538,Haliyal,21625,15.32864,74.75638
2539,2539,Gunnaur,20980,28.23995,78.43994
2540,2540,Gorūr,6192,12.82297,76.06463
2541,2541,Goregaon,6946,18.15483,73.29147
2542,2542,Ghugus,31859,19.9381,79.11192
2543,2543,Ghātanji,20785,20.14183,78.31333
2544,2544,Gāndhī Nagar,9773,13.00639,80.25417
2545,2545,Fīrozpur Jhirka,20195,27.78853,76.94496
2546,2546,Fatehgarh Chūriān,18051,31.86431,74.95665
2547,2547,Emmiganūr,80933,15.77203,77.48345
2548,2548,Dūsi,5257,12.77574,79.67892
2549,2549,Dongargaon,12505,20.97172,80.85077
2550,2550,Digha,3667,21.62776,87.51965
2551,2551,Dharmanagar,32912,24.36667,92.16667
2552,2552,Devadānappatti,14190,10.14673,77.6439
2553,2553,Colovale,5723,15.63522,73.82426
2554,2554,Chinna Salem,20111,11.63422,78.87412
2555,2555,Chikhli,52841,20.35046,76.25774
2556,2556,Chidambaram,58650,11.39933,79.69144
2557,2557,Chhāta,21260,27.72374,77.5081
2558,2558,Charthāwal,19942,29.54687,77.59438
2559,2559,Brahmapur,324726,19.31151,84.7929
2560,2560,Bijni,12990,26.49588,90.70298
2561,2561,Bīghāpur Khurd,6409,26.34734,80.65698
2562,2562,Bīdar,204071,17.90802,77.51524
2563,2563,Bhīkhi,15961,30.05918,75.535
2564,2564,Betūl,91953,21.90056,77.90229
2565,2565,Beohāri,22107,24.02423,81.37831
2566,2566,Barsāna,9815,27.64802,77.3764
2567,2567,Bara Bazar,7985,22.56667,88.35
2568,2568,Banmankhi,26806,25.88857,87.19421
2569,2569,Bānki,16555,20.37912,85.52953
2570,2570,Bakewar,14217,26.66226,79.17625
2571,2571,Bagulā,20999,23.33664,88.64109
2572,2572,Bagaha,103855,27.09918,84.09003
2573,2573,Awantipur,6807,33.91978,75.01515
2574,2574,Āsind,15389,25.7342,74.33278
2575,2575,Āsansol,504271,23.68333,86.98333
2576,2576,Amānpur,10362,27.71222,78.73788
2577,2577,Alwa Tirunagari,8887,8.60635,77.93983
2578,2578,Adūr,29652,9.15595,76.73192
2579,2579,Abohar,130603,30.14453,74.19552
2580,2580,Soyībug,104000,34.07677,74.7057
2581,2581,Porur,33060,13.03565,80.15821
2582,2582,Airoli,100000,19.15096,72.99625
2585,2585,Palavakkam,14369,12.9535,80.2572
2588,2588,Paramathi Velur,25012,11.1916,77.9563
2593,2593,Shahre Jadide Andisheh,80000,35.6803,51.0193
2594,2594,Ţāleb ābād,4850,35.5013,51.53147
2595,2595,Qūchān,111752,37.106,58.50955
2598,2598,Qā’en,40157,33.72654,59.18439
2600,2600,Mahrīz,36720,31.58428,54.4428
2604,2604,Kerman,577514,30.28321,57.07879
2633,2633,Simala,2569,9.97326,123.61648
2634,2634,Silway 7,7893,6.17711,125.12068
2635,2635,Silago,2276,10.5291,125.1618
2636,2636,Sibulan,9021,6.93361,125.46222
2637,2637,Santiago,108414,16.68808,121.5487
2638,2638,Santa Rosa,216650,14.31222,121.11139
2639,2639,Santa Rita,3211,15.61923,120.86962
2640,2640,Santa Cruz,2070,12.8763,124.0566
2642,2642,San Remigio,3806,11.0809,123.9381
2643,2643,San Miguel,2171,10.53856,123.083
2644,2644,San Mariano,5686,15.32083,120.87609
2646,2646,San Isidro,4061,15.23507,120.64134
2647,2647,Sanghan,2509,9.08556,125.57278
2648,2648,Sangay,3780,6.445,124.04444
2649,2649,Salug,6774,8.11472,122.78333
2650,2650,Salapungan,5928,15.1339,120.92794
2652,2652,Punolu,2468,7.05,124.58333
2653,2653,San Vicente,3269,18.50746,122.15035
2654,2654,Polomolok,63987,6.22167,125.06398
2663,2663,Oytograk,18271,36.83333,81.93333
2666,2666,Baoshan,935618,25.11626,99.16366
2667,2667,Layka,29032,37.07694,79.73167
2668,2668,Qapqal,22111,43.80194,81.08722
2671,2671,Baijiantan,93697,45.69298,85.13942
2672,2672,Kostik,4324,47.78682,87.33078
2673,2673,Fanlou,62859,34.48091,116.85248
2674,2674,Anguo,82181,34.83056,116.81944
2675,2675,Sanchahe,1770,28.49528,106.42833
2676,2676,Zhongshu,91750,24.51667,103.76667
2677,2677,Zhan’erxiang,3947,33.77986,106.30034
2680,2680,Yulei,4360,32.84056,105.00806
2681,2681,Heyuan,463907,23.73333,114.68333
2683,2683,Yongning,9999,33.83956,106.18865
2684,2684,Yigou,59073,35.81139,114.31667
2685,2685,Yixing,1285785,31.36059,119.82016
2686,2686,Yashan,56629,22.1975,109.94194
2687,2687,Heyou,12374,30.08256,107.35174
2688,2688,Yangliujie,10057,26.36667,107.5
2689,2689,Xishan,1452,25.68528,108.96389
2691,2691,Xinzhai,100168,36.4,118.61667
2694,2694,Xigang,112061,38.55258,106.34805
2695,2695,Xiawuqi,1718,39.61361,117.05333
2697,2697,Xiaogang,127076,28.23333,116.58333
2699,2699,Xiacang,3546,39.78639,117.41667
2700,2700,Wuzhou,761948,23.48054,111.28848
2701,2701,Wenxian Chengguanzhen,31339,32.94712,104.68139
2703,2703,Wanxian,859662,30.81601,108.37407
2704,2704,Tingjiang,5320,26.07401,119.50574
2706,2706,Taiping,3000,28.14083,106.03771
2707,2707,Taiping,24393,30.26204,107.29287
2708,2708,Suixi,74172,33.89067,116.77473
2711,2711,Shiqiaozi,58538,36.16167,119.26306
2712,2712,Shiqian,9571,27.5225,108.22806
2713,2713,Yanta,79196,36.24111,115.66722
2714,2714,Shawan,21551,33.62736,104.5637
2718,2718,Renfengzhuang,3006,39.31139,117.66222
2719,2719,Qishan,51750,34.63333,116.8
2720,2720,Qionghu,66145,28.84061,112.37399
2721,2721,Qinzhou,1296300,21.98247,108.65061
2723,2723,Qishan,55500,29.84431,117.71937
2726,2726,Mingtong,6437,31.77319,108.54104
2727,2727,Min’ancun,5000,26.05022,119.50002
2728,2728,Mawu,11015,34.42639,104.91472
2729,2729,Longgu,59086,34.90333,116.80667
2730,2730,Lintong,75882,34.37803,109.20892
2731,2731,Linping,78180,30.4225,120.29722
2733,2733,Wuwei,1010295,37.92672,102.63202
2734,2734,Liangxiang,76744,39.73598,116.13295
2735,2735,Lengshuitan,88935,26.4111,111.59559
2737,2737,Jinsha,95647,32.08982,121.07355
2738,2738,Jingdezhen,473561,29.2947,117.20789
2742,2742,Hong’an,18235,28.50228,109.26661
2743,2743,Hefei,5050000,31.86389,117.28083
2744,2744,Handan,1358318,36.60999,114.48764
2745,2745,Guandu,42766,30.95589,109.84697
2746,2746,Gaojia,43944,30.02035,107.86
2747,2747,Fujia,23660,33.81889,105.95361
2748,2748,Wofo,24209,29.90825,105.78706
2750,2750,Fangjiazhuang,2679,39.72972,117.42056
2751,2751,Erwangzhuang,1282,39.39167,117.35389
2752,2752,Xinyi,98259,22.37303,110.94746
2753,2753,Datangzhuang,2294,39.39944,117.43417
2754,2754,Dajianchang,1098,39.47778,117.08306
2756,2756,Yangchun,153547,22.16667,111.78333
2757,2757,Chixi,3810,26.91111,119.48306
2758,2758,Jiangyin,1779515,31.91102,120.26302
2759,2759,Ceyu,13161,37.79222,114.08639
2761,2761,Baisha,2880,26.52222,110.93111
2763,2763,Anhua,29916,33.50528,105.04782
2764,2764,Ahu,55298,34.37664,118.60308
2765,2765,Wuduan,41803,34.57444,117.09528
2766,2766,Caijiagang,35564,29.74248,106.47508
2767,2767,Huaxing,9316,29.59977,106.06963
2768,2768,Kuanchuan,27438,34.16639,105.54111
2769,2769,Tatou,4650,24.61732,118.52672
2770,2770,Neikeng,1600,24.78544,118.46037
2771,2771,Shanxia,3093,24.93802,118.8817
2772,2772,Santangpu,58000,27.40556,111.98694
2773,2773,Weiwangzhuang,2214,39.025,117.44083
2776,2776,Youhao,78402,47.85306,128.83565
2777,2777,Xuanhua,373422,40.61205,115.06463
2779,2779,Shuangcheng,130710,45.3798,126.30711
2781,2781,Dongning,61440,44.08436,131.11841
2782,2782,Chaihe,67963,44.7598,129.67826
2786,2786,Chela,11045,34.06897,104.46189
2787,2787,Tanping,11199,33.81122,104.97543
2788,2788,Liping,10287,33.18559,104.8839
2789,2789,Shijiba,13791,33.06694,104.45282
2790,2790,Longfeng,10207,33.39584,105.04572
2791,2791,Sangba,3525,34.03907,103.79044
2792,2792,Shimen,7156,34.73602,103.70148
2793,2793,Zuogaimanma,5879,34.99744,103.04864
2794,2794,Zhifang,11799,33.72598,105.48358
2795,2795,Liulin,9540,33.87437,106.1696
2796,2796,Yan’anxiang,13871,34.46001,104.91673
2798,2798,Zhouxi,4873,31.81665,108.47741
2799,2799,Longqiao,8609,30.6153,109.36445
2800,2800,Zhuxi,22900,31.12443,108.29065
2801,2801,Lishu,6116,30.66438,108.74758
2802,2802,Yuchi,10607,30.26577,108.22354
2803,2803,Xialu,26300,29.94167,108.08442
2804,2804,Gangjia,19072,30.22055,107.50403
2805,2805,Bishan,18102,30.77075,107.4571
2806,2806,Jiangchi,12131,29.91369,108.02711
2807,2807,Houxi,11097,28.89259,109.12722
2808,2808,Zhufo,10671,29.22153,108.49694
2809,2809,Longxi,12692,29.46963,108.51554
2810,2810,Dongyang,40143,29.83291,106.45066
2811,2811,Zhifeng,28467,29.6544,105.78416
2812,2812,Longji,10111,29.46196,105.40473
2813,2813,Gaolou,6364,30.04767,105.97921
2815,2815,Fudong,16754,23.12319,100.00014
2817,2817,Ankang,13236,23.18254,99.74368
2818,2818,Qishan,14945,34.23323,105.39512
2819,2819,Danbao,7252,32.86088,104.77269
2820,2820,Hongbao,20868,34.75191,106.06026
2821,2821,Yanghe,13400,34.51831,105.0077
2822,2822,Puqiakeqi,35142,37.31739,79.70532
2823,2823,Lixianghu,5149,29.35937,106.97423
3540,3540,Talofofo Village,3215,13.35513,144.75835
3543,3543,Yuen Long,200000,22.44518,114.02621
3544,3544,Tai Mei Tuk,17544,22.47447,114.23458
3633,3633,Tongging,16000,2.8985,98.5231
3634,3634,Ambarita,2000,2.6814,98.8311
3636,3636,Trucuk,23584,-7.71833,110.65889
3643,3643,Singkawang,235064,0.90925,108.98463
3644,3644,Serpong,80193,-6.31694,106.66417
3647,3647,Sanana,29716,-2.05853,125.97786
3649,3649,Purwakarta,179233,-6.55694,107.44333
3655,3655,Mranggen,28026,-7.0268,110.5158
3656,3656,Metro,168575,-5.11306,105.30667
3660,3660,Luwuk,47778,-0.9516,122.7875
3663,3663,Kuala Tungkal,33683,-0.81623,103.46111
3670,3670,Gebog,43756,-6.735,110.8444
3677,3677,Bojonegoro,86568,-7.1502,111.8817
3679,3679,Bambanglipuro,44713,-7.95,110.28333
3741,3741,Vattalkundu,22638,10.16069,77.75883
3742,3742,Valsād,72929,20.61013,72.93428
3743,3743,Ūn,15007,29.58479,77.2554
3744,3744,Uklāna,11908,29.51124,75.87823
3745,3745,Thiruthani,39899,13.17594,79.61637
3746,3746,Tiruppur,963173,11.11541,77.35456
3747,3747,Thiruvarur,58777,10.77269,79.6368
3748,3748,Taleigao,17148,15.46915,73.83285
3749,3749,Sumbal,11695,34.23072,74.6472
3750,3750,Srīmushnam,12364,11.40118,79.40384
3751,3751,Soron,28683,27.89055,78.74621
3752,3752,Sīra,57928,13.74155,76.9043
3753,3753,Sindhnūr,68793,15.76983,76.75581
3754,3754,Sillod,51042,20.30303,75.65284
3755,3755,Shertallai,45474,9.68581,76.33996
3756,3756,Seoni,1630,31.24188,77.12362
3757,3757,Sathankulam,14084,8.44164,77.91349
3758,3758,Samrāla,18623,30.83601,76.19324
3759,3759,Sagauli,34622,26.7639,84.74341
3760,3760,Saugor,247333,23.83877,78.73874
3761,3761,Renigunta,25895,13.65143,79.51256
3762,3762,Rāzām,27832,18.44909,83.65957
3763,3763,Raxaul,47965,26.97982,84.85065
3764,3764,Rānāvāv,26011,21.68734,69.74485
3765,3765,Rāmjībanpur,18318,22.82815,87.60888
3766,3766,Rājaldesar,24104,28.02849,74.47442
3767,3767,Raisen,40977,23.33033,77.7811
3768,3768,Rahā,4724,26.23333,92.51667
3769,3769,Radaur,12328,30.02706,77.15177
3770,3770,Puduppatti,7570,11.15217,78.21205
3771,3771,Pilibangan,36755,29.44964,74.10093
3772,3772,Pihānī,30369,27.61987,80.20343
3773,3773,Periyanayakkanpalaiyam,24894,11.15255,76.95159
3774,3774,Peraiyur,9244,9.73579,77.78955
3775,3775,Patāmundai,34400,20.57806,86.56063
3776,3776,Parīchhatgarh,18990,28.97841,77.93422
3777,3777,Pāchora,46823,20.66727,75.35305
3778,3778,Nambutalai,7914,9.72766,79.00707
3779,3779,Mushābani,32761,22.51135,86.45713
3780,3780,Mungaoli,20081,24.40837,78.09588
3781,3781,Mubarakpur,53263,26.08866,83.29088
3782,3782,Miriālgūda,101234,16.8722,79.56247
3783,3783,Mangawān,12503,24.66754,81.54644
3784,3784,Maner,27901,25.64602,84.87291
3785,3785,Malkera,12591,23.78213,86.28767
3786,3786,Mādugula,14741,17.91589,82.81578
3787,3787,Machhlīshahr,25247,25.68564,82.41106
3788,3788,Lingsugūr,29783,16.15876,76.52174
3789,3789,Lānja,13121,16.86086,73.54993
3790,3790,Kuchaiburi,23072,22.26675,86.17385
3791,3791,Kozhikode,550440,11.24802,75.7804
3792,3792,Korampallam,3228,8.77506,78.09158
3793,3793,Khānpur,14688,28.53446,78.06546
4146,4146,Al Fujairah City,86512,25.11641,56.34141
4154,4154,Kunduz,161902,36.72895,68.857
4155,4155,Ghormach,30000,35.73062,63.78264
4156,4156,Farkhār,10480,36.57288,69.85783
4157,4157,Muhmand Dara,6835,34.24749,70.87218
4451,4451,Mardakan,15267,40.49182,50.14292
4464,4464,Sarishābāri,81325,24.75127,89.83126
4465,4465,Ramnagar,3000,23.7772,90.17604
4466,4466,Jessore,243987,23.16971,89.21371
4468,4468,Paltan,184492,23.73625,90.41426
4537,4537,Seria,30097,4.60637,114.32476
5020,5020,Daxing,40068,29.55605,106.16002
5021,5021,Guangpu,18002,29.33567,106.14521
5022,5022,Qingfeng,19627,29.33938,105.82676
5139,5139,Yaypan,20332,40.37583,70.81556
5141,5141,Tŭytepa,51400,41.0321,69.36253
5157,5157,Thới Lai,109684,10.06522,105.55863
5158,5158,Ho Chi Minh City,8993082,10.82302,106.62965
5161,5161,Đưc Trọng,161232,11.73559,108.3733
5162,5162,Đồng Hới,169000,17.46885,106.62226
5164,5164,Buôn Ma Thuột,146975,12.66747,108.03775
5176,5176,Quận Đức Thịnh,132000,10.30989,105.73855
5241,5241,Hazratishoh,5900,41.39465,71.78903
5242,5242,Qorasuv,33000,40.72782,72.88577
5243,5243,Jalolquduq,24000,40.68918,72.60931
5253,5253,Zvëzdnyy,9800,57.7325,56.31472
5255,5255,Verkhnyaya Inta,1975,65.98115,60.30945
5256,5256,Tyumen,768358,57.15222,65.52722
5257,5257,Tyubuk,3573,56.05521,60.9405
5258,5258,Tsementnyy,5972,57.4693,60.1536
5259,5259,Troitskoye,10887,52.9822,84.68
5260,5260,Troitskiy,11081,57.06028,63.74811
5261,5261,Surgut,300367,61.25,73.41667
5262,5262,Strezhevoy,44784,60.7333,77.5889
5263,5263,Staropesterevo,3554,54.5001,86.4094
5264,5264,Sovkhoznyy,3546,56.5599,61.426
5265,5265,Shumikha,18499,55.22611,63.29611
5266,5266,Shubenka,1200,52.6551,85.09858
5267,5267,Samus’,5706,56.74482,84.70422
5268,5268,Promyshlennyy,1112,67.58333,63.91667
5269,5269,Polysayevo,28026,54.6012,86.2459
5270,5270,Podgornoye,5024,57.78861,82.65194
5271,5271,Pioner,6015,55.3166,85.9508
5272,5272,Nizhnyaya Tavda,6711,57.67306,66.1725
5273,5273,Nagornyy,6308,52.7959,83.5498
5274,5274,Martyush,4110,56.4,61.88194
5275,5275,Malinovoye Ozero,4101,51.67528,79.7825
5276,5276,Listvyanskiy,2673,54.4399,83.4984
5277,5277,Kunashak,5950,55.7032,61.5498
5278,5278,Kommunisticheskiy,2690,61.67889,64.48194
5279,5279,Itatskiy,4235,56.07,89.03694
5280,5280,Dalmatovo,14526,56.26,62.9362
5281,5281,Beryozovsky,47000,56.9083,60.8019
5282,5282,Berëzovo,7034,63.93806,65.04194
5283,5283,Beregovoy,7961,55.17301,73.21984
5284,5284,Bachatskiy,14618,54.2927,86.1285
5285,5285,Kedrovyy,5142,56.28232,91.5376
5286,5286,Timiryazevskiy,3153,54.92917,60.7625
5287,5287,Zvëzdnyy,1200,56.7492,106.4799
5288,5288,Volchanets,4013,42.91388,132.76222
5289,5289,Udachny,15266,66.42989,112.4021
5290,5290,Priargunsk,7902,50.3691,119.1012
5291,5291,Namtsy,7980,62.71959,129.66722
5292,5292,Mirny,40308,62.53528,113.96111
5293,5293,Kuytun,10566,54.34241,101.50917
5294,5294,Knevichi,4605,43.39975,132.18808
5295,5295,Khatassy,3676,61.90638,129.63302
5296,5296,Dunay,8394,42.87881,132.33521
5297,5297,Cheremkhovo,57395,53.15611,103.0675
5298,5298,Chegdomyn,14855,51.12853,133.00827
5299,5299,Bureya,5383,49.81212,129.81278
5300,5300,Uglegorsk,12669,49.08047,142.06449
5301,5301,Paratunka,1767,52.96202,158.25723
5302,5302,Mgachi,1632,51.04834,142.26821
5303,5303,Bogorodskoye,4108,52.37397,140.43579
5316,5316,Anse Royale,3818,-4.73333,55.51667
5365,5365,Denov,78300,38.26746,67.89886
5366,5366,Bulung’ur Shahri,29200,39.76003,67.27441
5368,5368,Urganch,145000,41.55339,60.62057
5370,5370,Ohangaron,37784,40.90639,69.63833
5371,5371,Navoiy,144158,40.08444,65.37917
5372,5372,Manghit,33200,42.11556,60.05972
5748,5748,Mae Ramat,17316,16.98403,98.51665
5751,5751,Chaiya,12223,9.38625,99.19861
5754,5754,Ban Dan Lan Hoi,5791,17.00683,99.57497
5759,5759,Sing Buri,20046,14.88786,100.40464
5762,5762,Rong Kwang,12087,18.33903,100.31736
5763,5763,Pong Nam Ron,8878,12.90575,102.26225
5769,5769,Pak Kret,182926,13.91301,100.49883
5770,5770,Mueang Nonthaburi,254375,13.86075,100.51477
5771,5771,Nakhon Nayok,21309,14.20463,101.21295
5774,5774,Chaiyaphum,58350,15.81047,102.02881
5775,5775,Pattaya,119532,12.93333,100.88333
5778,5778,Bueng Na Rang,4948,16.1712,100.12531
5784,5784,Ayní,2128,39.39406,68.53766
5785,5785,Gleno,8133,-8.72389,125.43611
5786,5786,Seydi,17762,39.4816,62.91374
6409,6409,Yuzhnyy-Kospashskiy,2275,58.9725,57.759
6410,6410,Yuryuzan’,13424,54.86333,58.42194
6412,6412,Yayva,10615,59.3347,57.2592
6414,6414,Yanaul,27963,56.2751,54.9338
6422,6422,Uchaly,37788,54.35806,59.43611
6423,6423,Tirlyanskiy,5758,54.2109,58.5806
6436,6436,Shumikhinskiy,2192,58.7448,57.6926
6445,6445,Priyutovo,20847,53.9,53.93333
6450,6450,Pervouralsk,133600,56.90528,59.94361
6452,6452,Orenburg,564773,51.7727,55.0988
6457,6457,Nizhnyaya Tura,22600,58.6293,59.8118
6461,6461,Mindyak,2955,54.0231,58.7891
6463,6463,Mendeleyevsk,22969,55.90819,52.29047
6469,6469,Kultayevo,4235,57.8948,55.9378
6490,6490,Dubrovka,1916,59.22866,51.15578
6496,6496,Bogatoye,6391,53.0601,51.3325
6497,6497,Bilimbay,5875,56.96889,59.8149
6504,6504,Sapu Padidu,9789,5.91722,125.26694
6505,6505,Santo Niño,4915,17.8861,121.5691
6506,6506,Santa Teresita,2849,13.86639,120.98139
6507,6507,Santa Maria,2420,15.08672,120.76991
6508,6508,Santa Juliana,2962,15.32826,120.42863
6509,6509,Santa Cruz,9863,13.4758,122.0275
6510,6510,Santa Clara,4306,6.6782,122.06
6511,6511,San Sebastian,2101,13.7283,123.5939
6513,6513,San Juan,3148,17.74222,120.45833
6514,6514,San Juan,5034,15.2897,120.0648
6515,6515,San Jose,6345,7.73667,125.07028
6517,6517,San Francisco,3016,13.7911,122.2876
6518,6518,San Francisco,8989,10.6461,124.3816
6520,6520,Rizal,2428,10.68333,122.63333
6521,6521,Rapu-Rapu,4647,13.1866,124.1256
6522,6522,Pinit,3281,13.5686,123.414
6523,6523,Pines,3019,8.45222,123.8075
6524,6524,Pigcawayan,11420,7.27722,124.42556
6525,6525,Perrelos,10971,10.1169,123.6738
6526,6526,Parang,3491,9.28149,125.94208
6527,6527,Paniqui,48261,15.6689,120.5806
6528,6528,Palimbang,4858,6.21002,124.18887
6529,6529,Palguyod,3230,16.1227,120.52
6530,6530,Padre Garcia,4304,13.8791,121.2139
6531,6531,Orong,6772,9.9373,122.829
6532,6532,Novallas,5525,9.5117,123.1225
6533,6533,New Leyte,2788,7.5,125.75
6534,6534,Nalus,3920,6.01222,124.58528
6535,6535,"Brgy. Nalook, kalibo",2000,11.68586,122.36916
6536,6536,Nabannagan West,3596,18.07156,121.5363
6537,6537,Mozon,4301,13.8526,120.98935
6538,6538,Miranda,8040,10.3047,122.8778
6539,6539,Minien East,6111,15.97723,120.48127
6540,6540,Matlang,5840,10.8902,124.4554
6541,6541,Malinao,4264,7.56029,124.70839
6542,6542,Matalom,4335,10.28306,124.78778
6543,6543,Matalam,9783,7.08639,124.90056
6544,6544,Masipi West,3086,17.37933,121.83861
6545,6545,Marogong,3785,7.66667,124.15
6546,6546,Mapolopolo,2219,15.88087,120.37422
6547,6547,Mantiquil,2281,9.16667,123.05
6548,6548,Manaulanan,2231,7.04806,124.61944
6549,6549,Managa,3460,6.74611,125.26806
6550,6550,Mampurog,2310,14.0458,122.8836
6551,6551,Malitbog,3125,12.75212,121.46591
6552,6552,Maligaya,4275,15.6747,120.8887
6553,6553,Malbug,2292,12.0563,123.6461
6555,6555,"Magapit, Aguiguican",13659,18.10788,121.67705
6556,6556,Maddarulug Norte,2186,17.60732,121.6767
6557,6557,Mabini,2767,13.75324,120.94049
6558,6558,Maayon,4999,11.3867,122.7859
6559,6559,Lugait,7370,8.34111,124.25917
6560,6560,Loboc,16312,9.63833,124.03482
6561,6561,Llorente,7908,11.41194,125.54583
6562,6562,Lianga,13623,8.63361,126.09472
6563,6563,La Trinidad,41258,16.455,120.5875
6565,6565,Comagascas,2914,9.13972,125.55972
6567,6567,Kagay,2318,6.0088,120.9074
6568,6568,Inicbulan,2570,13.82043,120.98345
6569,6569,Guiwanon,2433,11.1975,123.708
6570,6570,Guimba,32306,15.6605,120.7683
6571,6571,Guadalupe,11121,10.1165,123.6072
6572,6572,General Santos,697315,6.11278,125.17167
6573,6573,General MacArthur,4491,11.24639,125.53944
6574,6574,Ganassi,2412,7.82694,124.10344
6575,6575,Gabaldon,7259,15.4522,121.3387
6576,6576,Eraan,5262,9.06289,117.7016
6578,6578,Dimaluna,3187,8.1218,123.7995
6579,6579,Digdig,3462,15.949,120.9778
6580,6580,Dibuluan,2384,16.51907,121.76472
6581,6581,Daraitan,3742,14.6028,121.4319
6582,6582,Damulog,8789,7.48361,124.94306
6583,6583,Daanbantayan,13439,11.24681,124.01462
6584,6584,Cotabato,325079,7.22361,124.24639
6585,6585,Cordova,29289,10.24394,123.94222
6586,6586,Conversion,2853,15.8984,121.1277
6587,6587,Cogon Cruz,2901,10.50944,123.96972
6588,6588,Catayauan,3843,18.16072,121.65271
6589,6589,Catarman,47449,12.4989,124.6377
6590,6590,Catarman,3688,9.60169,123.86111
6591,6591,Cardona,30222,14.48646,121.22752
6592,6592,Caranan,7265,13.5167,123.0156
6593,6593,Capaga,2801,11.4379,122.7479
6594,6594,Cansuje,2436,9.92314,123.49629
6595,6595,Camalobalo,2539,10.2731,122.9505
6596,6596,Camaley,2297,15.99724,120.30107
6597,6597,Calolbon,5005,13.596,124.0991
6598,6598,Calauan,36580,14.14989,121.3152
6599,6599,Calasiao,24276,16.0111,120.36
6600,6600,Calantas,4519,15.01933,120.51793
6602,6602,Calamba,2719,10.1755,123.2826
6603,6603,Calaca,37443,13.93244,120.81327
6604,6604,Bugasong,2828,11.04464,122.06463
6605,6605,Bonga,6566,13.2799,123.7587
6606,6606,Binonga,83980,10.7719,122.9817
6607,6607,Biao,12043,7.16333,125.52111
6608,6608,Bel Air,36007,14.5594,121.0258
6609,6609,Batasan Bata,4966,15.14442,120.94077
6610,6610,Batasan,2231,7.03333,125.05
6611,6611,Basiao,2475,11.54861,122.6375
6612,6612,Basdiot,4015,9.94718,123.37515
6613,6613,Barugo,6655,11.32417,124.73833
6614,6614,Barong Barong,3604,8.8535,117.8939
6616,6616,Bantilan,5406,14.75814,121.66902
6617,6617,Balogo,2298,15.99032,120.28302
6618,6618,Balilihan,2931,9.7561,123.973
6619,6619,Balibago,3429,13.92572,120.62556
6621,6621,Balangiga,5592,11.10972,125.3875
6622,6622,Balangbalang,2135,9.05694,125.62278
6623,6623,Balabagan,2423,7.52639,124.11417
6624,6624,Bao,3006,13.6414,122.8314
6625,6625,Bagumbayan,2990,13.45,123.66667
6626,6626,Bacolod City,454898,10.66667,122.95
6627,6627,Aurora,4500,16.99065,121.63664
6628,6628,Arcangel,3470,11.5395,122.3455
6629,6629,Anambongan,2504,15.86634,120.38858
6630,6630,Amdos,2247,9.8821,123.0972
6631,6631,Alibug,2576,12.22906,121.22811
6632,6632,Alanib,4207,8.02778,124.98611
6633,6633,Aborlan,4790,9.43361,118.54879
6634,6634,Talabaan,3553,6.94111,122.17222
6635,6635,Kajatian,5436,6.03111,120.99194
6636,6636,Kauswagan,2223,7.8657,123.3973
6637,6637,Tagnanan,4171,7.28361,125.84222
6638,6638,Lim-oo,2137,11.15083,124.63083
6640,6640,Zafarwal,23078,32.34464,74.8999
6641,6641,Sanghar,62033,26.04694,68.94917
6642,6642,Renala Khurd,37111,30.87878,73.59857
6643,6643,Nabisar,6256,25.06717,69.6434
6644,6644,Mirpur Sakro,8371,24.54692,67.62797
6645,6645,Mirpur Khas,215657,25.5276,69.01255
6647,6647,Khairpur,40083,28.06437,69.70363
6648,6648,Jand,18170,33.43304,72.01877
6649,6649,Gujar Khan,69374,33.25411,73.30433
6650,6650,Dera Bugti,18120,29.03619,69.15849
6651,6651,Chaman,88568,30.91769,66.45259
6652,6652,Bozdar Wada,9175,27.183,68.6358
6653,6653,Bhakkar,81950,31.62685,71.06471
6654,6654,Nowshera Cantonment,96766,33.99829,71.99834
6655,6655,Setharja Old,32651,27.2127,68.46883
6985,6985,Kluang,169828,2.03046,103.31689
6986,6986,Semenyih,92491,2.9516,101.843
6987,6987,"Kampung Bukit Tinggi, Bentong",12346,3.34944,101.82631
6988,6988,Bidur,30016,4.11667,101.28333
6989,6989,Sarikei,29281,2.11667,111.51667
6990,6990,Peringat,23288,6.03333,102.28333
6991,6991,Putra Heights,60000,2.99361,101.57255
7117,7117,Kirtipur,44632,27.67872,85.2775
7118,7118,Madhyapur Thimi,119955,27.68056,85.3875
7140,7140,Sur,71152,22.56667,59.52889
7201,7201,Union,2285,11.7612,121.8963
7202,7202,Tuding,7491,16.41085,120.6422
7203,7203,Tubod,2310,9.99625,123.57252
7204,7204,Tococ East,2266,15.82498,120.42605
7205,7205,Taywanak Ilaya,3093,14.15759,120.84655
7206,7206,Tawan tawan,3585,7.16917,125.37278
7207,7207,Tanza,2584,11.5825,122.78361
7208,7208,Tamiso,2904,9.6314,123.0873
7209,7209,Taluksangay,7343,6.95417,122.18389
7210,7210,Talon,2311,11.56,122.68111
7211,7211,Talisay,133148,10.24472,123.84944
7212,7212,Tala,4270,13.2742,122.5859
7213,7213,Tacub,3137,8.1875,124.10806
7214,7214,Tabu,6143,9.8923,122.7098
7215,7215,Tubao,2965,8.334,123.8547
7216,7216,Tabina,5074,7.4669,123.4081
7217,7217,Suyan,7229,6.06028,125.38528
7218,7218,Sumilao,5339,8.28722,124.94556
7219,7219,Sinayawan,4930,6.7125,125.30944
7220,7220,Kanazawa,466029,36.6,136.61667
7221,7221,Itami,197335,34.78427,135.40126
7222,7222,Honchō,644668,35.70129,139.98648
7223,7223,Chōfu,212977,35.65924,139.54837
7224,7224,Saijō,58823,33.91667,133.18333
7225,7225,Sukagawa,68790,37.28333,140.38333
7226,7226,Kuroiso,61230,36.96667,140.05
7227,7227,Kōriyama,322996,37.4,140.38333
7228,7228,Chiba,979768,35.6,140.11667
7229,7229,Toyotomi,4054,45.10222,141.77528
7230,7230,Shibetsu,21744,43.65899,145.13197
7231,7231,Sapporo,1973832,43.06667,141.35
7232,7232,Ōmu,4596,44.57778,142.96134
7233,7233,Ōdate,64543,40.27178,140.55756
7234,7234,Niki,3874,43.15,140.76667
7235,7235,Kōka,89619,34.9802,136.15752
7236,7236,Ebina,136312,35.38121,139.39651
7237,7237,Miyakojima,54908,24.79016,125.31109
7238,7238,Shimotsuke,60274,36.41323,139.86622
7239,7239,Higashimatsushima,39098,38.40886,141.17901
7240,7240,Kitanagoya,86068,35.24702,136.87832
7241,7241,Hashima,67909,35.329,136.68051
7243,7243,Tagami,11481,37.71133,139.07215
7246,7246,Tanba,62152,35.16034,135.03914
7254,7254,Jalal-Abad,123239,40.93333,73.0
7255,7255,Nookat,18228,40.26597,72.61834
7262,7262,Teaoraereke Village,3939,1.33309,173.01162
7265,7265,Kujang-ŭp,19522,39.86722,126.03028
7266,7266,Hau-ri,13581,41.20056,129.47028
7268,7268,Eisen,56006,35.9675,128.93083
7269,7269,Pohang,500000,36.02917,129.36481
7270,7270,Mokpo,268402,34.81282,126.39181
7271,7271,Gumi,427770,36.1136,128.336
7272,7272,Kimhae,550758,35.23417,128.88111
7273,7273,Cheonan,666417,36.8065,127.1522
7280,7280,Maqat,14082,47.64967,53.34291
7281,7281,Balykshi,19260,47.06667,51.86667
7282,7282,Zaysan,17600,47.46657,84.87144
7283,7283,Zhangaqorghan,21339,43.90652,67.24637
7284,7284,Ushtobe,20492,45.25258,77.98284
7285,7285,Talghar,42194,43.30235,77.23811
7286,7286,Saryshaghan,4365,46.11805,73.61336
7287,7287,Saryozek,13930,44.36178,77.97279
7290,7290,Qarabalyq,9838,53.75019,62.0584
7291,7291,Kokpekty,5165,48.75,82.4
7292,7292,Yereymentau,14169,51.62364,73.10265
7293,7293,Otegen Batyra,18864,43.41845,77.02187
7294,7294,Dolinka,4543,49.67685,72.67822
7296,7296,Shubarköl,1247,48.88222,68.80722
7297,7297,Lamam,4463,15.41705,106.69461
7298,7298,Attapeu,4297,14.81071,106.83184
7301,7301,Koggala,3000,5.9886,80.3286
7302,7302,Katunayaka,84643,7.16992,79.88837
7303,7303,Hendala,56978,6.9909,79.883
7304,7304,Bentota,37000,6.42598,79.99575
7366,7366,Yamethin,59867,20.43189,96.13875
7367,7367,Maubin,51542,16.73148,95.65441
7368,7368,Uliastay,16265,47.74167,96.84444
7372,7372,Altai,17617,46.37222,96.25833
7719,7719,Colonia,7371,9.51638,138.12167
8271,8271,Tsu,163461,34.73333,136.51667
8272,8272,Tomioka,47911,36.25411,138.89813
8273,8273,Tanushimarumachi-toyoki,21156,33.35,130.68333
8274,8274,Tano,2644,33.41667,134.01667
8275,8275,Tamamura,36367,36.3,139.11667
8276,8276,Takanabe,20185,32.13333,131.5
8277,8277,Suwa,48972,36.03799,138.11308
8278,8278,Osaka,2753862,34.69374,135.50218
8279,8279,Ōno-hara,26190,34.28333,132.26667
8280,8280,Niihama,123059,33.96047,133.30522
8281,8281,Menuma,27684,36.22245,139.38205
8282,8282,Matsudo,498575,35.77995,139.90144
8283,8283,Kudamatsu,52772,34.00964,131.86637
8541,8541,Inarajan Village,3052,13.27363,144.74845
8545,8545,Tsim Sha Tsui,24557,22.3,114.16667
8546,8546,Tai Kok Tsui,33801,22.32146,114.163
8547,8547,Mid Levels,15464,22.28399,114.14958
8548,8548,Hong Kong,7491609,22.27832,114.17469
8549,8549,Fanling,263200,22.49487,114.13949
8550,8550,Choi Wun,38405,22.33385,114.21368
8620,8620,Teluk Dalam,25780,0.5729,97.8034
8623,8623,Padangsidempuan,225105,1.37952,99.27146
8626,8626,Blangpidie,24085,3.73956,96.83608
8634,8634,Tabanan,33667,-8.5413,115.12522
8641,8641,Sape,5000,-8.56667,118.98333
8645,8645,Prigen,24164,-7.68333,112.61667
8647,8647,Pekanbaru,1085000,0.51667,101.44167
8650,8650,Malang,843810,-7.9797,112.6304
8653,8653,Kualakapuas,35632,-3.00913,114.38759
8659,8659,Jatibarang,73010,-6.47472,108.31528
8663,8663,Ciamis,109839,-7.3257,108.3534
8664,8664,Ceper,28646,-7.67417,110.67889
8670,8670,Banjaran,164952,-7.04528,107.58778
8672,8672,Padalarang,184182,-6.83778,107.47278
8673,8673,Gamping Lor,66110,-7.79556,110.32639
8676,8676,Legian,10000,-8.70415,115.17028
8830,8830,Karamsad,32380,22.54243,72.90392
8831,8831,Kanpur,2823249,26.46523,80.34975
8832,8832,Kannod,15870,22.66764,76.74286
8833,8833,Kampil,9200,27.61268,79.27687
8834,8834,Kālāgarh Project Colony,13298,29.4778,78.78449
8835,8835,Jodiya Bandar,15788,22.71667,70.28333
8836,8836,Jintūr,42420,19.61186,76.6874
8837,8837,Jhālu,20356,29.33609,78.22608
8838,8838,Jhālāwār,51884,24.59633,76.16499
8839,8839,Jāwad,16887,24.59916,74.86261
8840,8840,Jandiāla Gurū,8155,31.56198,75.0277
8841,8841,Jammalamadugu,43870,14.84677,78.38314
8842,8842,Jambusar,41594,22.05236,72.80074
8843,8843,Jalpāiguri,107832,26.51667,88.73333
8844,8844,Jākhal,7411,29.79627,75.82392
8845,8845,Jagatsinghapur,32945,20.2557,86.17112
8846,8846,Islāmpur,31875,25.14075,85.20587
8847,8847,Indore,1837041,22.71792,75.8333
8848,8848,Hugli,177005,22.90877,88.39674
8849,8849,Hirekerūr,16688,14.45506,75.3952
8850,8850,Hālīsahar,128172,22.93218,88.41859
8851,8851,Guntakal Junction,120964,15.17112,77.36244
8852,8852,Goyerkāta,66358,26.69984,89.02565
8853,8853,Gopālganj,63725,26.46734,84.44041
8854,8854,Ghoga,3766,25.21738,87.1571
8855,8855,Ghātampur,40435,26.15272,80.16803
8856,8856,Garautha,9489,25.5719,79.29764
8857,8857,Ganj Murādābād,9970,26.95733,80.184
8858,8858,Gajraula,50380,28.8457,78.2396
8859,8859,Fatehganj West,23810,28.4662,79.30657
8860,8860,Erandol,30931,20.92206,75.32641
8861,8861,Dumra,15778,26.56708,85.5204
8862,8862,Dirba,13838,30.07222,75.99607
8863,8863,Dhārūr,19060,18.82017,76.10937
8864,8864,Devanhalli,25228,13.24655,77.71183
8865,8865,Deshnoke,16720,27.79836,73.34297
8866,8866,Deoli,16685,20.6492,78.48023
8867,8867,Curchorem,22510,15.26349,74.10875
8868,8868,Chikodi,34984,16.42898,74.58591
8869,8869,Chātakonda,2816,17.55303,80.6477
8870,8870,Chamrajnagar,67992,11.92312,76.93949
8871,8871,Bomdila,7121,27.26475,92.42472
8872,8872,Bolpur,70998,23.66278,87.69695
8873,8873,Bisenda Buzurg,11100,25.4035,80.61889
8874,8874,Bilgrām,27173,27.17509,80.03201
8875,8875,Bhūm,18543,18.45908,75.65877
8876,8876,Bhanjanagar,20647,19.92719,84.58201
8877,8877,Barāgaon,11362,25.42936,82.81709
8878,8878,Bālāghāt,80360,21.8156,80.18845
8879,8879,Bairāgnia,37465,26.74063,85.27323
8880,8880,Baikunthpur,10179,24.72768,81.40975
8881,8881,Badhni Kalān,6070,30.6813,75.29087
8882,8882,Atraulī,47512,28.02964,78.28571
8883,8883,Ajnāla,19691,31.84473,74.76295
8884,8884,Abhaneri,1424,27.00743,76.6076
8885,8885,Kirandul,19053,18.63649,81.25827
8888,8888,Pedda bhogili,6733,18.6612,83.3784
8889,8889,Chetlat,2347,11.68828,72.70957
8895,8895,Neyrīz,45506,29.1988,54.3278
8897,8897,Bandar-e Genāveh,52750,29.5791,50.517
8900,8900,Akbarābād,98342,29.2464,52.7793
8930,8930,Yamunānagar,208931,30.12796,77.28371
8931,8931,Wani,57288,20.05507,78.95313
8932,8932,Walajapet,30256,12.9251,79.36626
8933,8933,Velankanni,10000,10.68333,79.83333
8934,8934,Unhel,15837,23.33794,75.55931
8935,8935,Umred,51794,20.85396,79.32466
8936,8936,Umarkhed,35265,19.60144,77.68878
8937,8937,Ujhāni,56309,28.00311,79.00821
8938,8938,Tuni,52658,17.35905,82.54607
8939,8939,Tīra Sujānpur,7747,31.83364,76.50539
8940,8940,Thakurdwara,39860,29.19203,78.86145
8941,8941,Talwandi Bhai,16391,30.85584,74.92979
8942,8942,Sulya,18950,12.561,75.38741
8943,8943,Srivaikuntam,15665,8.62931,77.91281
8944,8944,Soygaon,23320,20.59606,75.61765
8945,8945,Rajpur Sonarpur,424368,22.4382,88.43205
8946,8946,Solan,40283,30.90908,77.10869
8947,8947,Siwāna,22067,25.65154,72.42243
8948,8948,Sirsi,22549,28.63916,78.64303
8949,8949,Sirsa,181639,29.53489,75.02898
8950,8950,Singtam,6133,27.23467,88.50168
8951,8951,Singoli,9030,24.96667,75.3
8952,8952,Shīshgarh,23471,28.72928,79.31469
8953,8953,Shirhatti,16604,15.23352,75.57996
8954,8954,Sherghāti,35279,24.5595,84.79162
8955,8955,Shāhpura,33273,27.3912,75.95956
8956,8956,Sāsvad,29858,18.34351,74.03102
8957,8957,Sangariā,38638,29.79886,74.46683
8958,8958,Sachīn,12662,21.08718,72.88153
8959,8959,Ratnagiri,75986,16.99154,73.31022
8960,8960,Ratanpur,21392,22.2866,82.16823
8961,8961,Rangia,26388,26.44931,91.61356
8962,8962,Rājahmundry,376333,17.00517,81.77784
8963,8963,Pusad,71588,19.91274,77.57838
8964,8964,Ponnāni,105512,10.76695,75.92523
8965,8965,Pithorāgarh,47571,29.58349,80.20947
8966,8966,Patti,9685,25.9215,82.20048
8967,8967,Patna,1599920,25.59408,85.13563
8968,8968,Pāthardi,24091,19.17279,75.17425
8969,8969,Pāpireddippatti,8852,11.91774,78.36865
8970,8970,Palakkad,132728,10.77319,76.65366
8971,8971,Ozar,44935,20.09473,73.92816
8972,8972,Nongpoh,14387,25.9023,91.87694
8973,8973,Nīmāj,20424,26.14995,74.00094
8974,8974,Nawābganj,34134,28.54103,79.63462
8975,8975,Nawābganj,79246,26.93129,81.19841
8976,8976,Nargund,33403,15.72299,75.38666
8977,8977,Narasimharājapura,7775,13.61075,75.512
8978,8978,Narasaraopet,97194,16.23488,80.04927
8979,8979,Nāndgaon,24209,20.3068,74.65501
8980,8980,Naduvannūr,24648,11.48772,75.77511
8981,8981,Munnar,68000,10.08818,77.06239
8982,8982,Mulbāgal,47462,13.16352,78.39346
8983,8983,Mukher,28647,18.70636,77.36795
8984,8984,Mauganj,25537,24.66721,81.87339
8985,8985,Māndalgarh,21569,25.19407,75.07215
8986,8986,Mādhogarh,10530,26.27522,79.1859
8987,8987,Lunglei,52728,22.89247,92.74218
8988,8988,Limbdi,41740,22.56507,71.81076
8989,8989,Lāla,10942,24.55418,92.61592
8990,8990,Khurda,42526,20.18268,85.61629
8991,8991,Khetia,15021,21.67124,74.58535
8992,8992,Kharela,13798,25.54277,79.81235
8993,8993,Khāpa,15175,21.42243,78.98168
9300,9300,Nurota,32300,40.56139,65.68861
9301,9301,Izboskan,6800,41.03766,72.33659
9302,9302,G‘ozg‘on,8800,40.59078,65.49466
9324,9324,Thái Bình,53071,20.45,106.34002
9328,9328,Nha Trang,283441,12.24507,109.19432
9329,9329,Nhà Bè,17264,10.69672,106.74032
9331,9331,Hưng Yên,40273,20.64637,106.05112
9332,9332,Hà Giang,32690,22.82333,104.98357
9344,9344,Quận Đức Thành,70000,10.25874,105.646
9461,9461,Santa Cruz,2639,13.865,121.1887
9462,9462,San Nicolas,34237,18.1725,120.5953
9463,9463,San Isidro,4270,8.25833,124.59306
9464,9464,San Anton,4911,15.3478,120.91991
9827,9827,Tha Muang,26746,13.96118,99.64122
9828,9828,Tha Maka,52907,13.9,99.76667
9829,9829,Tha Kham,25810,9.11072,99.23208
9830,9830,Pai,2284,19.36168,98.43973
9831,9831,Mae Chan,37672,20.14675,99.85256
9832,9832,Lan Sak,13905,15.45289,99.57606
9835,9835,Kantang,14156,7.40542,99.51561
9836,9836,Nuea Khlong,12217,8.07143,98.99933
9840,9840,Wiset Chaichan,19129,14.5945,100.33825
9841,9841,Wang Sai Phun,8899,16.3885,100.53801
9844,9844,Prachin Buri,32600,14.04992,101.36864
9845,9845,Phayuha Khiri,12271,15.45525,100.13533
9847,9847,Nong Bua Lamphu,34401,17.20406,102.44068
9851,9851,Kosum Phisai,10672,16.24858,103.06739
9854,9854,Bang Lamung,39620,13.04704,100.92891
9861,9861,Jilikŭl,5434,37.49167,68.53106
9862,9862,Kim,1600,40.20798,70.46882
10627,10627,Shugurovo,2243,54.50828,52.13265
10628,10628,Shirokovskiy,1823,58.8411,57.785
10638,10638,Pychas,3183,56.50332,52.44088
10639,10639,Puteyets,1223,65.17157,57.09101
10644,10644,Podsolnechnoye,1138,53.15,52.0191
10647,10647,Perevolotskiy,9667,51.87633,54.19378
10666,10666,Lomovka,3178,53.91944,58.36722
10674,10674,Kurmanayevka,4552,52.5093,52.0675
10679,10679,Kosa,2199,59.9449,54.9895
10692,10692,Is,4729,58.7909,59.7179
10698,10698,Turuntayevo,6260,52.20203,107.64484
10699,10699,Tokur,1126,53.13531,132.88996
10700,10700,Sokol,5928,51.80036,107.44437
10701,10701,Serebryanyy Bor,4302,56.67076,124.83754
10702,10702,Selenduma,2562,50.91306,106.24056
10703,10703,Rudnaya Pristan’,2332,44.35812,135.81478
10704,10704,Novoshakhtinskiy,8091,44.02576,132.16583
10705,10705,Nakhodka,146920,42.81384,132.87348
10706,10706,Knyaze-Volkonskoye,8936,48.46547,135.45582
10707,10707,Dostoyevka,1700,44.32554,133.48134
10708,10708,Barguzin,6052,53.61875,109.63904
10709,10709,Babushkin,4578,51.71222,105.86472
10710,10710,Afanas’yeva,1100,54.63958,100.61755
10711,10711,Troitskoye,3176,46.92493,142.64532
10712,10712,Dolinsk,11989,47.32946,142.79291
10719,10719,Ult-Ugun,2064,61.50571,74.21618
10723,10723,Victoria,22881,-4.62001,55.45501
10724,10724,Bel Ombre,4163,-4.61667,55.41667
10775,10775,Zelënyy Bor,2604,53.62178,91.61528
10776,10776,Zdvinsk,5539,54.70206,78.66105
10777,10777,Yagunovskiy,8199,55.2828,85.978
10778,10778,Verkhotur’ye,8500,58.86271,60.80536
10779,10779,Togur,8442,58.3631,82.8265
10780,10780,Tayzhina,5063,53.6679,87.4362
10781,10781,Svetlogorsk,1398,66.93762,88.35265
10782,10782,Salair,9096,54.2312,85.7972
10783,10783,Razdolinsk,2762,58.42111,94.66583
10784,10784,Onguday,5406,50.75,86.15
10785,10785,Mundybash,5870,53.211,87.2983
10786,10786,Kirovgrad,22685,57.42972,60.05972
10787,10787,Kamensk-Ural’skiy,182500,56.4185,61.9329
10788,10788,Erzin,2952,50.26,95.1623
10789,10789,Divnogorsk,30018,55.9581,92.3726
10790,10790,Degtyarsk,15294,56.704,60.0879
10791,10791,Cheremnoye,4458,53.16972,83.21333
10792,10792,Akademgorodok,50000,54.8523,83.106
10793,10793,Novyye Zori,3469,53.24778,83.425
10794,10794,Bazhovo,11537,55.05955,61.60445
10795,10795,Yelantsy,4009,52.80286,106.40466
10796,10796,Tayturka,5100,52.86917,103.46083
10797,10797,Svobodnyy,61017,51.37525,128.14097
10930,10930,Petaling Jaya,902086,3.10726,101.60671
10931,10931,Batu Gajah,46183,4.46916,101.04107
10932,10932,Mukah,49900,2.89435,112.09145
10933,10933,Tanah Merah,29116,5.8,102.15
10934,10934,Pasir Mas,230424,6.04934,102.13987
10935,10935,Ladang Seri Kundang,23307,3.2856,101.519
11050,11050,Bhojpur,2640,28.0353,82.29552
11051,11051,Bāglung,23296,28.27189,83.58975
11052,11052,Yaren,1100,-0.55085,166.9252
11069,11069,Haymā’,1294,19.95931,56.27575
11070,11070,Badīyah,18479,22.45,58.8
11071,11071,Madḩā’ al Jadīdah,2260,25.28345,56.3328
11155,11155,Yumbing,4930,9.23933,124.65778
11156,11156,Wright,4703,11.77028,125.02194
11157,11157,Vinzons,13617,14.1737,122.9066
11158,11158,Veruela,18114,8.0731,125.9558
11159,11159,Tuao,3845,16.58833,121.25778
11160,11160,Tinago,4491,13.18333,123.65
11161,11161,Tigao,2077,9.20889,126.17611
11162,11162,Tayum,2530,17.6172,120.6542
11163,11163,Tayabo,4406,15.8345,121.0309
11164,11164,Tawala,2695,9.55421,123.76955
11165,11165,Tapikan,2232,6.85194,124.3225
11167,11167,Tanza,3844,10.83484,123.011
11168,11168,Tamparan,2396,7.87917,124.33306
11169,11169,Tampakan,8306,4.92278,119.79389
11170,11170,Tambo,2989,13.2553,123.2906
11171,11171,Tacurong,54648,6.6925,124.67639
11172,11172,Tacloban,242089,11.24333,125.00472
11173,11173,Taal,39745,13.87992,120.92311
11174,11174,Siguinon,2211,10.9423,124.6806
11175,11175,Santo Domingo,2846,14.96532,120.55672
11176,11176,Santa Josefa,4164,7.99111,126.03
11177,11177,Santa Ignacia,11477,15.6169,120.4358
11178,11178,Santa Catalina Norte,5448,13.87083,121.3575
11179,11179,San Mariano,4782,12.64143,121.43791
11180,11180,San Diego,3451,14.0422,120.6255
11181,11181,Salvacion,2101,13.4633,123.3765
11182,11182,Salvacion,5565,10.68333,122.61667
11184,11184,Ramon Magsaysay,4892,8.00194,123.50944
11185,11185,Puerto Galera,3274,13.50223,120.95166
11186,11186,Ponong,2513,11.0829,122.6261
11187,11187,Polo,4046,9.4816,123.1802
11188,11188,Pinambaran,3378,15.20233,120.97797
11189,11189,Piat,5958,17.7905,121.478
11190,11190,Pato-o,2949,12.43025,122.0664
11191,11191,Patindeguen,2112,7.21972,124.49833
11192,11192,Pantijan No 2,5182,14.23306,120.80056
11193,11193,Panikian,2103,9.32935,125.9338
11194,11194,Pangian,4001,6.46278,125.54528
11195,11195,Panalipan,2679,10.64833,124.02167
11196,11196,Palian,2861,6.37427,124.91062
11197,11197,Palauig,2944,15.435,119.9045
11198,11198,Pagangan,2560,7.11444,124.59528
11199,11199,Olutanga,7133,7.31056,122.84639
11200,11200,Oaqui,2304,16.8583,120.4124
11201,11201,New Batu Batu,8881,5.06667,119.88333
11202,11202,Nena,2276,11.76583,125.41778
11203,11203,Nabunturan,16671,7.60778,125.96639
11204,11204,Montecillo,3289,13.89067,121.47575
11206,11206,Mindupok,3437,6.09056,124.42333
11207,11207,Midsalip,4069,8.0,123.26667
11208,11208,Miagao,8881,10.6442,122.2352
11209,11209,Mayorga,2721,10.9,125.0
11210,11210,Mayo,2829,7.00211,126.33198
11211,11211,Maxingal,2323,18.21488,121.66815
11212,11212,Matti,4796,6.77056,125.30861
11215,11215,Mapulot,2668,14.033,122.5399
11216,11216,Mapandan,11165,16.0248,120.4547
11217,11217,Maonon,2942,13.03643,123.37074
11218,11218,Mambog,3726,15.3137,120.0304
11219,11219,Mamali,2394,6.7736,124.6477
11220,11220,Maloma,4430,15.1135,120.0639
11221,11221,Malibong East,2313,15.8466,120.3269
11222,11222,Malayo-an,2868,11.0979,123.0091
11223,11223,Malacampa,4537,15.64335,120.41109
11224,11224,Makilala,13829,6.95167,125.09694
11225,11225,Mainit,2304,8.8436,117.8183
11228,11228,Madalag,2133,10.89944,122.9828
11229,11229,Macrohon,2825,10.07972,124.94306
11230,11230,Macaas,2703,10.69885,124.01154
11231,11231,Maasim,3577,14.99551,121.03082
11232,11232,Lupi,2253,13.53333,123.15
11233,11233,Lupao,11000,15.8793,120.8983
11234,11234,Lucsuhin,4240,13.88186,120.64131
11235,11235,Lomboy,3282,15.49255,120.71723
11236,11236,Linay,2656,8.51667,123.13333
11238,11238,Lepanto,2472,9.6845,123.4026
11239,11239,Lawigan,2571,10.48562,122.04442
11240,11240,Lacaron,2302,11.422,122.7422
11241,11241,Cumadcad,5203,12.98056,123.78917
11242,11242,Kisolon,8105,8.33,124.97694
11243,11243,Quipot,2764,13.77911,121.39722
11244,11244,Kibangay,6539,8.04972,124.89306
11247,11247,Jaclupan,9652,10.30138,123.8165
11248,11248,Ibarra,3065,10.12472,124.88417
11250,11250,Hindang,4106,10.43417,124.72917
11251,11251,Himaao,3865,13.5448,123.3005
11252,11252,Herrera,2198,13.2693,123.5769
11253,11253,Garchitorena,4909,13.8804,123.6946
11254,11254,Ganyangan,2169,7.67889,122.90944
11255,11255,El Salvador,6904,8.56306,124.5225
11256,11256,El Pardo,2768,9.66,123.4944
11257,11257,Eden,2136,17.03809,121.59799
11258,11258,Dungon,3181,11.7196,122.316
11259,11259,Don Carlos,20468,7.68,125.005
11260,11260,Dingras,6866,18.1032,120.6967
11261,11261,Dancalan,9863,9.9821,122.7386
11262,11262,Cuyapo,8595,15.78194,120.66472
11263,11263,Cervantes,2344,12.36861,124.65972
11264,11264,Cayungnan,2082,16.1332,119.8375
11266,11266,Carig,2924,17.65929,121.74357
11267,11267,Caridad,3688,10.8315,124.7518
11268,11268,Candaba,47326,15.0956,120.8267
11269,11269,Calatrava,2225,12.6198,122.0714
11270,11270,Burgos,3513,9.26639,126.18833
11271,11271,Bunga,3775,11.4838,124.5918
11272,11272,Bulaon,131818,15.08262,120.66288
11273,11273,Babug,4880,12.37325,121.04171
11274,11274,Boston,2891,7.87111,126.36417
11275,11275,Bontoc,10440,17.08731,120.97685
11276,11276,Bungsuan,4089,11.2404,122.6976
11277,11277,Binguang,2082,17.45893,121.79519
11278,11278,Payabon,3600,9.759,123.1412
11279,11279,Binahaan,4843,13.9917,121.75391
11280,11280,Baybay,17668,10.6785,124.8006
11281,11281,Bayabas,2165,16.45,120.51667
11282,11282,Bauang,17109,16.53083,120.33306
11283,11283,Battung,2350,17.72261,121.45914
11285,11285,Bantayan,18984,11.1683,123.7223
11286,11286,Banilad,4031,14.0667,120.7347
11287,11287,Baliton,5809,5.74361,125.23639
11288,11288,Balete,8662,14.01983,121.09506
11289,11289,Bayanga,5087,7.52139,124.25222
11290,11290,Badian,3614,9.86472,123.39639
11291,11291,Bacolod,5294,8.11667,123.91667
11292,11292,Babag,3215,7.73309,126.0713
11293,11293,Apud,2071,13.13928,123.29164
11294,11294,Alfonso,9446,14.14083,120.85389
11295,11295,Agay,3976,9.05361,125.58667
11296,11296,Panubigan,2110,7.4281,123.3466
11297,11297,Badak,6653,6.84722,124.72056
11298,11298,Malandag,12867,6.3103,125.24756
11299,11299,Mariana,11967,14.6172,121.0361
11300,11300,Chuhar Jamali,15781,24.3944,67.99298
11301,11301,Tordher,150000,33.99047,72.2863
11302,11302,Shikarpur,156901,27.95558,68.63823
11304,11304,Muzaffargarh,165192,30.07258,71.19379
11305,11305,Multan,1437230,30.19679,71.47824
11306,11306,Mandi Bahauddin,129733,32.58704,73.49123
11307,11307,Mach,16930,29.86371,67.33018
11308,11308,Kharian,81435,32.81612,73.88697
11309,11309,Khanpur,142426,28.64739,70.65694
11310,11310,Kalat,26701,29.02663,66.59361
11311,11311,Kahna Nau,45888,31.36709,74.36899
11312,11312,Garhiyasin,14810,27.90631,68.5121
11313,11313,Dhaunkal,12117,32.40613,74.13706
11314,11314,Dajal,17630,29.55769,70.37614
11315,11315,Chhor,16301,25.5126,69.78437
11317,11317,Chishtian,122199,29.79713,72.85772
11318,11318,Bahawalnagar,126617,29.99835,73.25272
11319,11319,Alizai,3334,33.53613,70.34607
12004,12004,Uji,192925,34.89044,135.80325
12005,12005,Tokushima,267345,34.06667,134.56667
12006,12006,Tanabe,65903,34.82242,135.76604
12007,12007,Shimonoseki,265684,33.95548,130.93713
12008,12008,Shimada,95610,34.81667,138.18333
12009,12009,Sakaidechō,57090,34.32278,133.8356
12010,12010,Sakai-nakajima,31268,36.26667,139.25
12011,12011,Sakai,782339,34.58333,135.46667
12012,12012,Onoda,44295,34.00139,131.18361
12013,12013,Ono,47609,34.85,134.93333
12014,12014,Odawara,188482,35.25556,139.15972
12015,12015,Noda,154114,35.94897,139.86793
12016,12016,Nakatsugawa,78930,35.48333,137.5
12017,12017,Nagoya,2191279,35.18147,136.90641
12018,12018,Kozakai-chō,22064,34.8,137.35889
12027,12027,Tin Shui Wai,282400,22.45679,114.00234
12028,12028,Nai Chung,5001,22.43116,114.25753
12029,12029,The Peak,19202,22.26202,114.15649
12119,12119,Tulangan Utara,63889,-7.4737,112.6505
12126,12126,Sragen,71522,-7.42639,111.02222
12131,12131,Pemenang,1000,-8.40401,116.10255
12133,12133,Paseh,126181,-7.1026,107.7641
12140,12140,Manggar,39135,-2.88333,108.26667
12143,12143,Kresek,110182,-6.13139,106.37972
12144,12144,Klungkung,27836,-8.53333,115.4
12145,12145,Kedungwaru,80257,-8.06667,111.91667
12146,12146,Kebonarun,21745,-7.70028,110.56306
12148,12148,Kamal,22515,-7.16778,112.71917
12150,12150,Delanggu,24440,-7.61667,110.68333
12151,12151,Dampit,23094,-8.21162,112.74934
12153,12153,Cimahi,568400,-6.87222,107.5425
12154,12154,Cicurug,88965,-6.78139,106.7825
12155,12155,Cibinong,363424,-6.48167,106.85417
12160,12160,Batang,127832,-6.4846,110.7083
12163,12163,Ambarawa,63193,-7.26333,110.3975
12170,12170,Kebon Gunung,2174,-7.65083,110.04639
12222,12222,Yellāpur,19343,14.9637,74.70929
12223,12223,Wazīrganj,19372,28.21145,79.05665
12224,12224,Virudunagar,73273,9.58509,77.95787
12225,12225,Utrān,14855,21.23333,72.86667
12226,12226,Udhampur,80447,32.92431,75.13573
12227,12227,Turuvekere,14115,13.16374,76.66641
12228,12228,Tumsar,43218,21.38333,79.73333
12229,12229,Tohāna,59749,29.71332,75.90441
12230,12230,Tikaitnagar,8806,26.94612,81.56583
12231,12231,Thenzawl,5963,23.31667,92.75
12232,12232,Tezpur,58851,26.63333,92.8
12233,12233,Tehri,27611,30.39086,78.4803
12234,12234,Tanakpur,16905,29.074,80.11139
12235,12235,Srinagar,975857,34.08565,74.80555
12236,12236,Sivagiri,20772,9.34461,77.42911
12237,12237,Shōranūr,42694,10.76181,76.27078
12238,12238,Shirdi,31978,19.76616,74.47738
12239,12239,Sheohar,24979,26.51393,85.29341
12240,12240,Shāmli,97966,29.4497,77.30959
12241,12241,Shāhpur,15850,25.60293,84.40412
12242,12242,Sandūr,29016,15.08613,76.54692
12243,12243,Saidpur,22904,25.53749,83.22378
12244,12244,Sāhibganj,95890,25.24425,87.63481
12245,12245,Ron,22593,15.69935,75.73408
12246,12246,Rājula,34652,21.03854,71.44345
12247,12247,Phirangipuram,17335,16.29078,80.26233
12248,12248,Phagwāra,100146,31.22452,75.77387
12249,12249,Pernem,5555,15.723,73.79511
12250,12250,Peravurani,21663,10.29035,79.20156
12251,12251,Penukonda,20220,14.08286,77.59473
12252,12252,Peddapalli,33582,18.61357,79.37442
12253,12253,Pātūr,21747,20.46093,76.93725
12254,12254,Palmaner,42179,13.2,78.74725
12255,12255,Pallikonda,21335,12.90518,78.9427
12256,12256,Pālitāna,55913,21.52519,71.82309
12257,12257,Pālakkodu,19630,12.30696,78.07022
12258,12258,Nīlēshwar,25405,12.25953,75.1352
12259,12259,Nasrullāhganj,18265,22.6837,77.27069
12260,12260,Narwar,16948,25.6439,77.9129
12261,12261,Nangavalli,9902,11.76189,77.89093
12262,12262,Nambiyūr,16126,11.35811,77.32115
12263,12263,Mūlki,17259,13.09101,74.79353
12264,12264,Moirāng,17103,24.4975,93.77791
12265,12265,Mohpa,7140,21.31012,78.82969
12266,12266,Mayāng Imphāl,22159,24.60998,93.88873
12267,12267,Mārkāpur,63982,15.73534,79.26848
12268,12268,Mariāni,23640,26.65725,94.31529
12269,12269,Māngrol,58989,21.12268,70.11484
12270,12270,Manāli,8341,32.2574,77.17481
12271,12271,Mahwah,22624,27.04594,76.93152
12272,12272,Madanpur,12959,23.00589,88.49168
12273,12273,Māchalpur,8556,24.12767,76.31672
12274,12274,Lohogaon,13529,18.59921,73.92701
12275,12275,Leh,37475,34.16504,77.58402
12276,12276,Lakhnādon,15589,22.60049,79.60094
12277,12277,Kushtagi,24180,15.75623,76.19112
12278,12278,Kulattūr,10632,9.0032,78.1928
12279,12279,Kovvūr,40379,17.0162,81.72934
12280,12280,Kodaikānāl,35021,10.23925,77.48932
12281,12281,Kiraoli,21024,27.13768,77.78516
12282,12282,Khonsa,10187,27.01667,95.56667
12283,12283,Khilchipur,16411,24.03943,76.578
12284,12284,Khed,14829,17.71888,73.39693
12285,12285,Kharod,8926,21.7442,82.5788
12286,12286,Kharagpur,219665,22.33971,87.32501
12625,12625,Khair,30173,27.94195,77.84243
12626,12626,Karīmpur,9565,23.97594,88.61917
12627,12627,Kantābānji,21024,20.46709,82.92042
12628,12628,Cumbum,60828,9.73647,77.2847
12629,12629,Kāgal,25479,16.57702,74.31544
12630,12630,Kadiri,81498,14.11168,78.15982
12631,12631,Jutogh,2467,31.1,77.11667
12632,12632,Jāmai,22587,22.19644,78.59191
12633,12633,Harrai,10250,22.61428,79.22207
12634,12634,Hājo,15977,26.2452,91.52525
12635,12635,Guna,153689,24.64691,77.3113
12636,12636,Gummidipundi,16605,13.40765,80.10879
12637,12637,Govardhan,20044,27.49658,77.46263
12638,12638,Gorantla,24586,13.98411,77.77224
12639,12639,Gopāmau,13581,27.53468,80.28507
12640,12640,Ghoti Budrukh,22095,19.71641,73.62821
12641,12641,Faizpur,24534,21.16766,75.86006
12642,12642,Eraniel,9844,8.20589,77.31726
12643,12643,Durgapur,518872,23.51583,87.30801
12644,12644,Diu,23779,20.71405,70.98224
12645,12645,Dīnānagar,23339,32.13664,75.47291
12646,12646,Dhemāji,13058,27.48333,94.58333
12647,12647,Dharampuri,14178,22.14951,75.34439
12648,12648,Colgong,24081,25.26328,87.23264
12649,12649,Chinchinim,7355,15.21447,73.97555
12650,12650,Chicalim,7787,15.39835,73.84216
12651,12651,Chāndil,4657,22.95745,86.05331
12652,12652,Chāībāsa,66252,22.55038,85.80249
12653,12653,Bodri,14491,23.16524,81.43262
12654,12654,Bhānder,22482,25.73581,78.74555
12655,12655,Bāsugaon,12832,26.46742,90.41951
12656,12656,Barkā Kānā,18182,23.62118,85.46748
12657,12657,Bāri,56136,26.64661,77.61634
12658,12658,Bargarh,68670,21.33348,83.61905
12659,12659,Banga,19234,31.18874,75.99495
12660,12660,Balasore,114321,21.49266,86.93348
12661,12661,Bakāni,8621,24.28624,76.23709
12662,12662,Baikunthpur,10790,23.26206,82.56051
12663,12663,Arambol,10000,15.68681,73.70449
12664,12664,Arakkonam,79080,13.08449,79.67053
12665,12665,Āmli,33369,20.28333,73.01667
12666,12666,Alīganj,26652,27.49358,79.17127
12667,12667,Akivīdu,40413,16.58225,81.38112
12668,12668,Perungudi,30363,12.96095,80.24094
12669,12669,Mohali,123484,30.67995,76.72211
12670,12670,Perumbavoor,26550,10.10695,76.47366
12671,12671,Vapi,71395,20.37175,72.90493
12672,12672,Edakkulam,2000,10.6102,76.18352
12673,12673,Vagator,14986,15.59766,73.74496
12674,12674,Kanuru,43696,16.28584,81.25464
12675,12675,Gajuwaka,258944,17.7,83.21667
12676,12676,Silapathar,22307,27.59441,94.72402
12683,12683,Shahrak-e Emām Ḩasan,5394,35.48846,51.34567
12684,12684,Surian,20000,30.4551,53.651
12689,12689,Qeshm,25000,26.9492,56.2691
12690,12690,Gonābād,43465,34.35287,58.68365
12694,12694,Bāfq,31215,31.6035,55.40249
12698,12698,'Abās Ābād,13482,36.72769,51.10574
12699,12699,Isfahan,1547164,32.65246,51.67462
13014,13014,Caoping,7772,33.67965,104.80823
13015,13015,Sheshu,4238,33.20049,104.93624
13016,13016,Dianzi,4722,34.63132,103.66482
13017,13017,Dabao,9601,33.4706,105.57654
13018,13018,Chanhe,4918,33.53667,105.65666
13019,13019,Shuiyang,13029,33.74844,106.10278
13020,13020,Ni’ao,2197,33.96083,103.55052
13021,13021,Tange,37074,34.62764,104.84062
13022,13022,Mali,42260,34.66463,104.69781
13027,13027,Jinping,2954,31.20842,109.93537
13028,13028,Zhushan,16331,30.73294,108.27419
13029,13029,Pushun,21940,30.47241,107.60326
13030,13030,Pingshan,29409,30.09655,107.42439
13031,13031,Zizhao,8791,30.53252,107.93775
13032,13032,Xiaoxi,9414,28.38037,108.91068
13033,13033,Liangzeng,8673,28.88365,108.39162
13034,13034,Guanqing,8415,28.61946,108.68674
13035,13035,Zhoubai,25147,29.52949,108.82267
13036,13036,Runxi,9441,29.07954,107.91766
13037,13037,Qiaozi,8773,29.41221,108.39123
13038,13038,Changtan,14396,29.34659,108.22027
13039,13039,Nantuo,26447,29.85538,107.5279
13040,13040,Yulong,16072,29.54615,105.81044
13043,13043,Shixi,9982,29.33522,107.03929
13044,13044,Hexi,6604,28.83116,107.31303
13048,13048,Tuantian,17484,24.7113,98.6532
13049,13049,Zhonghe,37682,25.05575,98.39993
13050,13050,Qiongkulecun,5455,38.09342,85.53773
13052,13052,Xiaying,23395,37.04248,119.47654
13053,13053,Xiejiawan,22066,34.81213,105.17148
13054,13054,Alamaiti,23583,38.58203,77.47622
13055,13055,Arele,17398,38.38008,77.31324
13056,13056,Yawa,33949,37.4119,79.51429
13220,13220,Maşfūţ,8988,24.81089,56.10657
13221,13221,Dibba Al-Hisn,26395,25.61955,56.27291
13223,13223,Qala i Naw,9000,34.98735,63.12891
13225,13225,Uruzgān,13388,32.92775,66.63253
13229,13229,Ḩukūmatī Dahanah-ye Ghōrī,3307,35.90617,68.48869
13230,13230,Chīras,12779,35.41674,65.98234
13550,13550,Shāhzādpur,102420,24.17687,89.5988
13551,13551,Comilla,1030000,23.46186,91.18503
13552,13552,Sonārgaon,130000,23.65,90.61667
13553,13553,Farīdpur,112187,23.60612,89.84064
13583,13583,Yingjiang,80481,24.71022,97.93671
13584,13584,Gudong,45528,25.34165,98.48297
13585,13585,Temeke,4600,47.22244,89.74276
13586,13586,Korla,549324,41.76055,86.15231
13587,13587,Dunhuang,186027,40.16667,94.68333
13588,13588,Youyupu,1124,27.5517,109.135
13589,13589,Ziyang Chengguanzhen,35496,32.51917,108.53232
13590,13590,Zhutuo,58262,29.0184,105.84877
13591,13591,Zhuangtou,2194,39.65778,117.29167
13593,13593,Zaozhuang,899753,34.86472,117.55417
13594,13594,Yuxi,16463,30.32392,105.77743
13596,13596,Wulingyuan,52712,29.34936,110.54407
13597,13597,Yucheng,62365,34.92889,116.46528
13598,13598,Youchou,17763,28.96346,109.14147
13600,13600,Xiuying,290000,20.00073,110.29359
13601,13601,Xiongzhou,79050,25.11667,114.3
13604,13604,Xiazhuang,63285,34.91611,118.63889
13605,13605,Xiaoweizhai,58913,26.19028,107.5125
13606,13606,Xiaodongzhuang,3784,39.06029,117.41544
13607,13607,Xiamen,4617251,24.47979,118.08187
13610,13610,Wangwu,24274,19.65623,109.29071
13611,13611,Yinzhu,75656,35.87861,119.97528
13614,13614,Tongxi,29699,30.00047,106.13043
13615,13615,Chengtangcun,105456,35.08357,117.19071
13616,13616,Binhe,278055,32.68833,112.8275
13618,13618,Shuikou,3760,26.3836,118.73027
13619,13619,Shijiang,9330,27.08194,110.79333
13620,13620,Shituo,26144,29.71613,107.13564
13621,13621,Shiquan,53422,33.04083,108.23639
13624,13624,Shenzhen,17494398,22.54554,114.0683
13628,13628,Pingxiang,893550,27.61672,113.85353
13629,13629,Paipu,17577,19.63981,109.15861
13630,13630,Niudaokou,2108,39.78611,117.25222
13632,13632,Maoming,1307802,21.66625,110.91364
13634,13634,Luxia,3540,26.93,118.80722
13636,13636,Longshi,56142,30.21469,106.45743
13638,13638,Longchi,24814,28.60996,109.04919
13639,13639,Lishui,451418,28.46042,119.91029
13640,13640,Qingnian,110046,36.84092,115.71087
13642,13642,Liangzhai,54742,34.5,116.75
13644,13644,Jianshan,17334,31.43396,108.89533
13647,13647,Huangmei,77633,30.19235,116.02496
13648,13648,Daxing,104904,39.74025,116.32693
13652,13652,Gao’an,49218,30.29019,107.46197
13653,13653,Fengyi,61890,25.58399,100.31181
13656,13656,Dezhou,679535,37.44661,116.36706
13657,13657,Datun,110258,34.80923,116.90174
13659,13659,Dala,2142,33.88333,103.33333
13660,13660,Dafengdong,26460,26.71194,107.81139
13662,13662,Changsha,3093980,28.19874,112.97087
13665,13665,Bangdong,1460,26.97556,109.18583
13666,13666,Baizi,47879,30.09403,105.71297
13667,13667,Baitu,16790,30.59722,108.8114
13668,13668,Baisha,6412,29.37222,106.92583
13669,13669,Aoxi,82717,27.42589,115.83643
13670,13670,Anshun,765313,26.25,105.93333
13671,13671,Damiao,16277,29.6443,106.06956
13672,13672,Yufengshan,23917,29.71975,106.72342
13673,13673,Tongjiaxi,21820,29.68497,106.44442
13674,13674,Lanyang,23711,19.46141,109.6604
13675,13675,Lixi,24429,28.53126,108.611
13676,13676,Hedong,101825,23.9196,115.7801
13678,13678,Xiuyan,71614,40.29278,123.27444
13679,13679,Tumen,78719,42.96562,129.84199
13681,13681,Siping,555609,43.16143,124.37785
13682,13682,Shunyi,117623,40.12175,116.64783
13683,13683,Shuangyashan,600000,46.67686,131.13273
13685,13685,Qitaihe,345033,45.768,130.9953
13686,13686,Jiamusi,549549,46.79711,130.31118
13688,13688,Hailin,85578,44.57149,129.38539
13921,13921,Koshigaya,345353,35.89035,139.78916
13922,13922,Innoshima,26141,34.28333,133.18333
13923,13923,Hirado,31192,33.36853,129.55247
13924,13924,Hino,21149,35.0,136.25
13925,13925,Hanyū,58686,36.16667,139.53333
13926,13926,Asuka,5681,34.48085,135.82039
13928,13928,Yotsukaidō,95266,35.65,140.16667
13929,13929,Yamada,15195,39.46667,141.95
13930,13930,Shisui,20660,35.71667,140.26667
13931,13931,Ōmiya,27588,36.55,140.41667
13932,13932,Itako,27512,35.93333,140.55
13935,13935,Utashinai,5162,43.51667,142.05
13936,13936,Sōbetsu,2665,42.55583,140.88611
13937,13937,Shintoku,6285,43.07472,142.83472
13938,13938,Biratori,5305,42.58333,142.13333
13939,13939,Ashibetsu,19108,43.50972,142.18556
13940,13940,Hamatonbetsu,3841,45.13333,142.38333
13942,13942,Nasushiobara,115794,36.97682,140.06642
13943,13943,Yurihonjō,76077,39.3895,140.05813
13946,13946,Saito,29262,32.08199,131.39957
13949,13949,Tajiri,8943,34.42695,135.24552
13955,13955,Kyzyl-Eshme,1100,39.56559,72.27153
13956,13956,Razzakov,34219,39.83895,69.5276
13957,13957,Tokmok,71443,42.84194,75.30149
13958,13958,Siem Reap,139458,13.36179,103.86056
13960,13960,Kampong Speu,33231,11.45332,104.52085
13969,13969,Kapsan-ŭp,20406,41.09028,128.29333
13970,13970,Yeongdong,24154,36.175,127.77639
13977,13977,Shu,39785,43.60507,73.76221
13978,13978,Matay,4139,45.8996,78.72039
13979,13979,Kurchum,8800,48.56603,83.66146
13982,13982,Esil,13504,51.95453,66.40772
13983,13983,Derzhavinsk,13856,51.09718,66.31875
13984,13984,Auezov,4209,49.71003,81.58018
13985,13985,Aktogay,3741,48.16667,75.3
13986,13986,Abay,35454,49.63539,72.86523
13991,13991,Talawakele,3545,6.9371,80.6581
13992,13992,Moratuwa,168280,6.773,79.8816
13993,13993,Jaffna,169102,9.66845,80.00742
13994,13994,Eravur Town,22982,7.7782,81.6038
14037,14037,Arno,2068,7.06691,171.55413
14046,14046,Myitkyina,90894,25.38327,97.39637
14047,14047,Kanbe,58146,16.70728,96.00168
14059,14059,Mörön,39404,49.63417,100.1625
14062,14062,Saynshand,19891,44.88239,110.11631
14063,14063,San Jose Village,15000,14.96823,145.61998
14069,14069,Hithadhoo,9927,-0.6,73.08333
14070,14070,Vilufushi,2077,2.50306,73.30859
14307,14307,Sapang Dalaga,2742,8.5399,123.5624
14308,14308,San Vicente,16116,15.2921,120.65498
14309,14309,San Vicente,3159,13.8967,122.2047
14310,14310,San Vicente,2871,13.5737,123.0533
14311,14311,Santo Rosario,6005,15.43425,120.88981
14312,14312,Santo Cristo,8664,15.29683,120.89025
14313,14313,Santa Maria,2554,8.03333,126.1625
14314,14314,Santa Magdalena,3913,12.648,124.1093
14315,14315,Santa Cruz,2919,10.63376,123.0821
14316,14316,Santa Barbara,8629,10.82306,122.53444
14317,14317,San Rafael,3792,14.1284,121.4147
14318,14318,San Manuel,9865,17.02375,121.63574
14319,14319,San Lucas,2267,13.7062,123.2032
14320,14320,San Juan,2056,11.00056,124.53917
14321,14321,San Joaquin,4893,10.588,122.1397
14322,14322,San Jacinto,10529,16.0726,120.4383
14323,14323,San Francisco,2279,9.52806,125.48556
14324,14324,San Enrique,9818,10.4161,122.8504
14325,14325,San Agustin,3912,14.93333,120.15
14326,14326,Salvador,4285,7.89528,123.84361
14327,14327,Salvacion,4904,8.6775,125.69917
14328,14328,Sagpon,6849,13.15,123.73333
14329,14329,Rizal,3823,10.8807,123.4178
14330,14330,Punta,2577,14.2914,121.3074
14331,14331,Punay,6099,5.96139,121.19806
14332,14332,Puelay,6854,15.88683,120.57358
14333,14333,Potot,2529,12.20345,123.43191
14334,14334,Pontevedra,3120,11.4812,122.8325
14335,14335,Placer,10443,9.65417,125.6025
14336,14336,Pitogo,5972,7.4546,123.3111
14337,14337,Piddig,3508,18.1655,120.7175
14338,14338,Pias,2853,15.01699,120.56238
14339,14339,Piape I,2543,10.7288,121.9724
14340,14340,Payao,9137,10.1785,122.9236
14341,14341,Paraiso,4153,6.47606,124.80954
14342,14342,Paracale,8290,14.2804,122.7881
14343,14343,Paombong,41384,14.83111,120.78917
14344,14344,Pangal Sur,2710,16.60036,121.66979
14345,14345,Panabo,84749,7.30806,125.68417
14346,14346,Palsong,4566,13.4248,123.2963
14347,14347,Pakiad,2689,10.71278,122.52417
14348,14348,Padre Zamora,2271,10.06667,123.25
14349,14349,Osmeña,2915,12.7315,123.3318
14350,14350,Odiongan,4151,8.84583,125.16639
14351,14351,Naili,2221,11.7666,122.1765
14352,14352,Monreal,4759,12.644,123.6648
14353,14353,Monkayo,51393,7.81528,126.05444
14354,14354,Molave,21088,8.0844,123.491
14355,14355,Minglanilla,62058,10.24498,123.7964
14356,14356,Matabao,3570,8.95722,125.39944
14357,14357,Masiga,2668,13.3607,121.8278
14358,14358,Masalukot Uno,10667,13.95533,121.41887
14359,14359,Mangatarem,12392,15.7874,120.2921
14360,14360,Mambayaan,2781,8.78278,124.78417
14361,14361,Malolos,198748,14.8443,120.81039
14362,14362,Malayal,2811,7.20801,121.94204
14363,14363,Malaya,11442,14.3971,121.3385
14364,14364,Malapag,3306,7.13333,124.81667
14365,14365,Malaga,2156,12.23686,124.37529
14366,14366,Mainit Norte,2442,14.16546,121.98496
14367,14367,Mahayag,2814,7.21667,125.61944
14368,14368,Magapit,11235,18.13741,121.66942
14369,14369,Mabua,2075,9.8039,125.4409
14370,14370,Mabini,7810,15.6,120.98333
14371,14371,Mabayo,2843,14.7318,120.2781
14372,14372,Looc,2209,11.4788,124.5542
14373,14373,Limot,2221,7.0405,126.27268
14374,14374,Limanancong,4790,10.9893,119.3593
14375,14375,Lawang Kupang,2616,15.34807,120.85752
14376,14376,La Paz,3618,8.27083,125.79972
14377,14377,Lanot,6928,11.51917,122.75722
14378,14378,Langcangan,8707,8.47944,123.75583
14379,14379,Lalagsan,2941,10.2824,123.013
14380,14380,La Carlota,41157,10.4242,122.9212
14381,14381,Kitapak,2924,6.95333,124.42556
14382,14382,Kiloloran,2484,14.63571,121.60617
14383,14383,Kawit,2257,8.1875,124.06667
14384,14384,Kauswagan,6851,8.19167,124.08472
14385,14385,Kaongkod,2329,11.25028,123.75556
14386,14386,Kabalantian,3242,8.37083,124.3275
14387,14387,Javalera,3421,14.25813,120.91558
14389,14389,Isabel,8597,10.9267,124.434
14390,14390,Hondagua,4587,13.9455,122.2417
14391,14391,Guisijan,2196,11.0932,122.0461
14392,14392,Ginatilan,2699,9.5694,123.3128
14393,14393,Eguia,3033,15.9065,119.8858
14394,14394,Domalanoan,15108,16.00292,120.21154
14395,14395,Dolo,3973,6.81028,125.19167
14396,14396,Dian-ay,3195,10.83333,123.55
14397,14397,Darapidap,2684,17.20007,120.41802
14398,14398,Danao,70270,10.52083,124.02722
14399,14399,Dalipey,2126,16.8,120.71667
14400,14400,Daliao,2335,5.86111,124.95333
14401,14401,Dalaoig,2485,17.94917,121.7148
14402,14402,Daet,78142,14.1122,122.9553
14404,14404,Concepcion,2180,10.40528,124.78306
14405,14405,Catungawan Sur,3342,9.7817,124.4693
14406,14406,Caticlan,4223,11.93337,121.95981
14407,14407,Casian,2677,11.035,119.7136
14408,14408,Casala-an,2875,9.11667,123.05
14410,14410,Calaya,2713,10.4916,122.6255
14411,14411,Calatugas,4542,9.16898,118.2235
14412,14412,Cagdianao,2676,9.92111,125.66917
14414,14414,Cadagmayan Norte,2212,10.81667,122.5
14415,14415,Kablalan,2698,5.77972,125.19778
14416,14416,Cabiraoan,2932,18.32377,122.08595
14417,14417,Cabangahan,3861,9.0781,122.9469
14418,14418,Cabacao,4486,13.3356,120.6588
14420,14420,Barurao,2990,6.89806,124.5975
14422,14422,Burgos,3727,16.07181,121.04954
14423,14423,Bundoc,4387,15.48575,120.71743
14424,14424,Buluang,2567,12.23336,119.87581
14425,14425,Bulu,3149,17.33333,121.76667
14426,14426,Bulata,5151,9.8599,122.4016
14427,14427,Bosdak,2549,13.4,122.5
14428,14428,Bolo,8310,13.78991,120.98173
14429,14429,Bobon Second,4150,15.65653,120.38119
14430,14430,Bingawan,3657,11.233,122.5672
14431,14431,Binabaan,2640,11.0191,122.5221
14432,14432,Beberon,2250,13.5444,123.1405
14433,14433,Batuan,4053,9.7808,124.1484
14434,14434,Bato,2117,13.6068,124.2986
14435,14435,Bato,5008,7.04306,125.47306
14436,14436,Batiano,2410,7.5534,126.4907
14437,14437,Basud,5232,14.065,122.9642
14438,14438,Barra,2084,12.0717,123.6395
14439,14439,Bantuanon,4673,8.01528,125.07083
14440,14440,Balasing,4768,14.8545,121.0127
14441,14441,Balangkayan,3159,11.47139,125.51056
14442,14442,Bakung,3185,4.89111,119.79417
14443,14443,Astorga,10712,6.90722,125.45583
14444,14444,Asia,23546,9.5506,122.5164
14445,14445,Apad,2755,13.815,122.7664
14446,14446,Ani-e,3324,8.61361,124.87056
14448,14448,Ambulong,9074,14.08804,121.06127
14449,14449,Alugan,2131,12.2188,125.4808
14450,14450,Alimodian,7302,10.82139,122.43111
14451,14451,Alim,3732,9.5649,122.4876
14452,14452,Agutaya,4989,11.148,120.9417
14453,14453,Agpangi,2150,10.57716,123.4232
14454,14454,Mauboh,2561,5.99,121.09361
14455,14455,Kalian,2815,7.5916,123.2319
14456,14456,Gubaan,4881,7.9748,123.564
14457,14457,Concepcion,2863,7.75056,125.71194
14458,14458,Gulod,5764,14.3449,121.2177
14459,14459,Ibung,4462,16.60938,121.18614
14460,14460,Nuyo,2224,7.41806,124.41083
14461,14461,Wazirabad,102444,32.44324,74.12
14462,14462,Pano Aqil,72881,27.85619,69.11111
14463,14463,Mingora,279914,34.7795,72.36265
14464,14464,Mian Channun,76226,30.44067,72.35679
14465,14465,Mansehra,66486,34.33023,73.19679
14466,14466,Khangarh,19698,29.91446,71.16067
14467,14467,Kandhkot,88468,28.24574,69.17974
14468,14468,Hadali,49663,32.64043,74.56898
14469,14469,Gojra,139726,31.14926,72.68323
14470,14470,Ghotki,64295,28.00437,69.31569
14471,14471,Dunyapur,34044,29.80275,71.74344
14472,14472,Burewala,183915,30.16667,72.65
14473,14473,Ahmadpur East,116579,29.14269,71.25771
14474,14474,Muhammad Moryal Sahito Jo Goth,1500,27.16825,68.40328
14637,14637,Umm Bāb,2500,25.21417,50.80722
14638,14638,Ar Rayyān,272465,25.29194,51.42444
14639,14639,Fuwayriţ,1333,26.02565,51.36971
15252,15252,Barrigada Village,8875,13.46913,144.79901
15256,15256,To Kwa Wan,15646,22.31693,114.19052
15257,15257,Tai Wai,19924,22.37286,114.17897
15345,15345,Gunungsitoli,136707,1.2888,97.6143
15346,15346,Bireun,47670,5.203,96.7009
15348,15348,Wedi,55300,-7.74306,110.57944
15351,15351,Watampone,149336,-4.5386,120.3279
15354,15354,Ungaran,171378,-7.13972,110.405
15355,15355,Tuban,76242,-6.8976,112.0649
15361,15361,Sokaraja,66482,-7.45806,109.28806
15362,15362,Soreang,116780,-7.03306,107.51833
15363,15363,Simpang,36652,-1.26424,104.09701
15367,15367,Samarinda,831460,-0.49167,117.14583
15368,15368,Ransiki,16245,-1.5083,134.1708
15370,15370,Poso,47477,-1.3959,120.7524
15375,15375,Muntilan,44859,-7.58111,110.29278
15376,15376,Mertoyudan,69871,-7.52,110.22639
15382,15382,Kefamenanu,48202,-9.44667,124.47806
15386,15386,Gombong,50200,-7.60722,109.51417
15387,15387,Genteng,79652,-8.36667,114.15
15390,15390,Demak,27251,-6.8909,110.6396
15400,15400,Ngemplak,23750,-7.54972,110.71639
15401,15401,Jayapura,404004,-2.53371,140.71813
15450,15450,Zaidpur,33397,26.83093,81.32929
15451,15451,Vriddhāchalam,61498,11.5183,79.32411
15452,15452,Vinchia,12355,22.21027,71.37967
15453,15453,Vengurla,12498,15.86125,73.63182
15454,15454,Vallabh Vidyanagar,32581,22.53333,72.9
15455,15455,Vaikam,22807,9.74858,76.39637
15456,15456,Vāghodia,14606,22.30505,73.40016
15457,15457,Vadlapūdi,17881,14.31119,79.8043
15458,15458,Vadamadurai,15886,10.44081,78.09784
15459,15459,Umarkot,27545,19.66529,82.20629
15460,15460,Tiruppuvanam,22517,9.82564,78.25795
15461,15461,Tiruppālaikudi,8824,9.54606,78.91721
15462,15462,Tirukkoyilur,28337,11.9662,79.20259
15463,15463,Thirukattupalli,12465,10.84431,78.95647
15464,15464,Tarabha,8155,20.73252,83.67443
15465,15465,Tādepalle,34357,16.48333,80.6
15466,15466,Sultanpur,16344,31.21468,75.19602
15467,15467,Sultanpur,8688,20.08695,76.5187
15468,15468,Sindi,13636,20.80509,78.88752
15469,15469,Sihorā,41192,23.4871,80.10404
15470,15470,Shyamnagar,441956,22.83333,88.36667
15471,15471,Shāntipur,149983,23.24723,88.43302
15472,15472,Shāhpur,19370,21.23742,76.22558
15473,15473,Secunderabad,204182,17.50427,78.54263
15474,15474,Sanvordem,5051,15.26269,74.11965
15475,15475,Sangāreddi,59199,17.62477,78.08669
15476,15476,Samāstipur,57575,25.86222,85.77953
15477,15477,Samālkha,35620,29.23552,77.01273
15478,15478,Ropar,52313,30.96896,76.52695
15479,15479,Rishra,117014,22.72394,88.34563
15480,15480,Rehti,10716,22.73781,77.43399
15481,15481,Rāwatsār,31016,29.26724,74.40288
15482,15482,Rahimatpur,17260,17.5921,74.19966
15483,15483,Rāghogarh,63873,24.44318,77.19768
15484,15484,Purnia,198453,25.77895,87.47422
15485,15485,Pilkhua,74212,28.71271,77.656
15486,15486,Periyanegamam,7913,10.74317,77.10296
15487,15487,Pennāgaram,15758,12.13433,77.89525
15488,15488,Pāngāla,1948,13.25,74.75
15489,15489,Pandaria,13875,22.22495,81.40994
15490,15490,Dharashiv,112085,18.18158,76.03889
15491,15491,Nūrpur,39077,29.14956,78.4084
15492,15492,Nizāmābād,13895,26.05295,83.05787
15493,15493,Nirmāli,17102,26.31397,86.58537
15494,15494,Neyveli,179150,11.60877,79.4994
15495,15495,Nāzirā,14302,26.91649,94.73611
15496,15496,Narharpur,6500,20.44892,81.62004
15497,15497,Nanauta,18738,29.71215,77.41728
15498,15498,Naldurg,17261,17.81667,76.28182
15499,15499,Nabīnagar,20848,24.60681,84.12624
15500,15500,Muri,12656,23.37074,85.86236
15501,15501,Munirābād,8246,15.30928,76.3383
15502,15502,Mūlanūr,12264,10.79426,77.7115
15503,15503,Mudgal,21006,16.01191,76.44203
15504,15504,Mhāsvād,21404,17.63359,74.78773
15505,15505,Merta,43758,26.64859,74.03414
15506,15506,Mehnagar,14897,25.87889,83.11611
15507,15507,Māvelikara,28300,9.25929,76.55642
15508,15508,Mariāhu,22248,25.60404,82.60379
15509,15509,Manoharpur,28928,27.29769,75.9495
15510,15510,Mandholi Kalān,4500,28.7085,75.68296
15511,15511,Mālvan,18858,16.05981,73.4629
15512,15512,Kuzhithurai,20611,8.31792,77.19192
15513,15513,Kunda,24948,25.71702,81.51396
15514,15514,Kumta,27999,14.42853,74.4189
15515,15515,Kūd,1242,33.07246,75.28727
15516,15516,Koynanagar,28091,17.4,73.76667
15517,15517,Kottūru,24004,14.82442,76.22005
15518,15518,Kottayam,55374,9.58692,76.52132
15519,15519,Koregaon,25846,18.64573,74.05909
15520,15520,Kondagaon,27626,19.59083,81.664
15521,15521,Khamānon Kalān,9396,30.81725,76.35478
15522,15522,Kātrās,57349,23.79752,86.29834
15523,15523,Katra,9106,32.99167,74.93195
15524,15524,Kātpādi,16408,12.96951,79.14552
15525,15525,Kāmthi,86213,21.21615,79.1973
15526,15526,Kalyān,1262255,19.2437,73.13554
15527,15527,Kakdwip,19368,21.87914,88.1913
15528,15528,Kaimganj,32858,27.55441,79.33525
15529,15529,Jora,26338,26.34209,77.8092
15530,15530,Jharia,86938,23.74079,86.41456
15531,15531,Jāmtāra,24388,23.963,86.80285
15532,15532,Jaisingpur,46942,16.77639,74.55361
15533,15533,Jaipur,2711758,26.91962,75.78781
15534,15534,Jahāzpur,20350,25.61994,75.27609
15535,15535,Jagnair,10023,26.8636,77.60231
15536,15536,Hosangadi,2609,13.69756,74.95427
15537,15537,Hindupur,133298,13.82807,77.49143
15538,15538,Guru Har Sahāi,16027,30.70862,74.40407
15539,15539,Guntur,530577,16.29974,80.45729
15872,15872,Raghunathpur,22802,23.53878,86.6735
15873,15873,Qāzigund,5576,33.63828,75.14261
15874,15874,Pollachi,88214,10.65825,77.0085
15955,15955,Dipayal,23416,29.26083,80.94
15974,15974,Dib Dibba,5000,26.19778,56.25778
16062,16062,Zaragoza,7391,16.3871,119.9443
16064,16064,Tuburan,3955,13.2417,123.55203
16065,16065,Tubigagmanoc,3866,10.6282,123.7489
16066,16066,Trento,15916,8.04583,126.06361
16067,16067,Ternate,20049,14.2897,120.7168
16068,16068,Tebag East,2779,15.98123,120.4674
16069,16069,Tugaya,2501,7.88277,124.174
16070,16070,Tagakpan,4019,7.11278,125.42917
16071,16071,Tabontabon,2557,11.04083,124.96111
16073,16073,Sulit,5019,6.23611,125.02056
16074,16074,Subic,8881,13.94859,120.94013
16195,16195,Parit Raja,17441,1.8681,103.1124
16196,16196,Labis,21906,2.385,103.021
16197,16197,Bedong,47585,5.72743,100.50876
16198,16198,Kampung Kilim,5000,6.4055,99.8502
16543,16543,Baleng,4141,33.60717,104.5129
16544,16544,Azitan,6881,34.70862,103.31281
16545,16545,Shibao,22621,34.10786,105.31585
16546,16546,Suyuan,7295,33.67348,105.45274
16547,16547,Taishihe,5442,33.70578,105.18122
16548,16548,Qu’ao,2868,35.39397,102.92422
16555,16555,Heyu,3382,31.87058,108.9492
16556,16556,Liangping,16794,31.12136,109.96909
16557,16557,Heyan,19589,31.35639,108.67045
16558,16558,Fengle,19851,31.18975,108.41461
16559,16559,Longsheng,6576,30.77537,107.55001
16560,16560,Qinglong,9327,30.16683,107.7847
16561,16561,Sanhe,140954,29.86864,107.73027
16562,16562,Pingkai,30958,28.42595,108.99594
16563,16563,Mala,11813,29.28262,108.85044
16564,16564,Xinhua,7081,29.32363,108.60395
16565,16565,Canggou,8497,29.44655,107.96998
16566,16566,Changshouhu,37839,29.90536,107.23789
16567,16567,Qingliu,9172,29.59105,105.32734
16568,16568,Shiqiang,6832,29.27426,107.20393
16569,16569,Yanglong,2404,38.80761,98.43418
16571,16571,Laba,14636,22.51062,99.63865
16572,16572,Jiachuan,10587,34.70222,105.92974
16573,16573,Qiaotou,12649,34.1387,105.032
16574,16574,Jicang,4650,34.71737,102.82502
16575,16575,Xiannüshan,13808,29.42187,107.76122
16576,16576,Dapeng,52219,34.28436,117.07522
16577,16577,Jiawang Zhen,49005,34.42202,117.46764
16578,16578,Lianwu,12261,35.09684,106.11105
16579,16579,Malu,11922,34.91064,106.4548
16580,16580,Axia,1277,33.82122,103.75009
16581,16581,Shuangcha,5398,34.56147,102.82985
16582,16582,Kezilexilike,11077,46.17755,89.92692
16583,16583,Dongwenquan,29134,29.45609,106.85776
16584,16584,Changling,34962,30.76835,108.48439
16585,16585,Hulunbuir,349400,49.21141,119.75582
16769,16769,Murbaḩ,2000,25.27623,56.36256
16771,16771,Tagāb,6400,34.85501,69.64917
16772,16772,Aībak,47823,36.26468,68.01551
16778,16778,‘Alāqahdārī Dīshū,9196,30.43206,63.29802
17130,17130,Narail,55112,23.15509,89.49515
17131,17131,Phultala,37985,22.71673,89.51194
17132,17132,Char Bhadrāsan,34423,23.30916,90.22698
17133,17133,Kishorganj,90690,24.43944,90.78291
17134,17134,Bhāndāria,30219,22.48898,90.06273
17167,17167,Zhefang,51477,24.26667,98.28333
17169,17169,Qushi,42380,25.21667,98.6
17170,17170,Qarek,29946,38.37222,76.99028
17171,17171,Qahurt,2567,46.33379,89.59236
17172,17172,Dulayti,8133,47.76649,87.08308
17173,17173,Zhuzhai,56908,34.76111,116.81389
17174,17174,Yuxi,103829,24.355,102.54222
17175,17175,Zhengding,193524,38.14501,114.56556
17177,17177,Yuyao,114177,30.05,121.14944
17179,17179,Yongxin,49951,28.96667,106.53333
17180,17180,Yezhou,104839,30.60369,109.72333
17182,17182,Yangtun,53417,34.88333,116.88333
17184,17184,Xiulin,122411,29.71667,112.4
17187,17187,Xiannü,83936,32.42806,119.56048
17188,17188,Xiangzhou,61748,36.16444,119.41889
17189,17189,Xiahu,5070,26.61056,119.94833
17190,17190,Wushan,117873,31.07749,109.87639
17191,17191,Tianfu,115370,37.26366,122.05228
17192,17192,Tangping,81729,22.03177,111.93537
17194,17194,Suozhen,58766,36.95389,118.10472
17195,17195,Sihu,40430,34.62625,117.97139
17196,17196,Shuangjiang,8320,26.15467,109.7138
17197,17197,Shiyan,3460000,32.6475,110.77806
17201,17201,Quzhou,902767,28.95944,118.86861
17204,17204,Pingluo,9658,33.5488,105.41033
17205,17205,Pingliang,504848,35.53917,106.68611
17206,17206,Nanrenfu,3365,39.64611,117.19167
17207,17207,Luyang,3150,27.62389,110.09889
17211,17211,Longshan,37976,35.03194,106.08056
17212,17212,Longlisuo,2450,26.41417,109.10222
17213,17213,Liutuan,48469,36.93333,119.38333
17214,17214,Puning,874954,23.31072,116.16869
17216,17216,Licha,55140,36.05722,119.78333
17219,17219,Jining,1241012,35.405,116.58139
17220,17220,Jingzhi,126703,36.31,119.3875
17222,17222,Jijiang,196787,29.28993,106.25001
17224,17224,Jiangshi,1510,27.12333,109.73778
17226,17226,Huzhou,1015937,30.8703,120.0933
17227,17227,Dasha,116307,23.11037,113.4418
17228,17228,Hexiangqiao,4570,27.22028,110.96333
17230,17230,Hecun,83009,36.53333,114.11111
17231,17231,Hanting,90637,36.77083,119.21083
17233,17233,Gongping,38852,31.12695,109.19722
17234,17234,Gelan,55938,30.03589,107.11612
17235,17235,Dongshan Dongzuxiang,1390,26.595,109.89667
17237,17237,Tanchang Chengguanzhen,31861,34.04462,104.39464
17239,17239,Chizhou,615274,30.66134,117.47783
17240,17240,Chengdu,13568357,30.66667,104.06667
17241,17241,Cangzhou,527681,38.31124,116.85334
17242,17242,Boshan,153596,36.48333,117.83333
17243,17243,Beisu,52752,38.15479,114.80689
17244,17244,Beibei,247702,29.82739,106.43645
17245,17245,Bachuan,208520,29.84863,106.05046
17246,17246,Xipo,5075,33.84772,106.43039
17247,17247,Lüfeng,33968,29.85834,105.97306
17248,17248,Shouqiao,6388,29.89955,105.89419
17249,17249,Deshun,11166,26.18222,109.32028
17250,17250,Wujiahe,14679,34.67167,105.24389
17252,17252,Nanpeng,46786,29.33472,106.65222
17253,17253,Goutou,4702,39.805,117.19917
17257,17257,Langtoucun,59046,40.04068,124.33525
17258,17258,Dunhua,148844,43.36954,128.22861
17259,17259,Changling,55841,44.27295,123.97559
17261,17261,Maying,16121,33.59645,104.84617
17869,17869,Pokrovsk,9763,61.47768,129.13699
17870,17870,Luchegorsk,21833,46.47656,134.19532
17871,17871,Kyra,4452,49.57903,111.97638
17872,17872,Kitoy,3953,52.6,103.9
17873,17873,Khorinsk,7986,52.16631,109.77626
17874,17874,Ivanovka,2170,43.96879,132.48331
17875,17875,Bichura,9559,50.58806,107.60222
17876,17876,Amazar,2527,53.86033,120.87925
17877,17877,Srednekolymsk,3459,67.45659,153.70246
17878,17878,Evensk,2024,61.91722,159.23348
17879,17879,Dukat,1194,62.57231,155.34988
17880,17880,Aleksandrovsk-Sakhalinskiy,12024,50.89926,142.16215
17882,17882,Grazhdanka,1418,44.2163,133.17706
17884,17884,Algatuy,1300,54.4009,100.255
17887,17887,Khobar,165799,26.27944,50.20833
17889,17889,Port Glaud,2174,-4.66256,55.41841
17932,17932,Gola Bāzār,10936,26.3446,83.35303
17933,17933,Gangākher,46366,18.96962,76.74946
17934,17934,Gāndhīdhām,166388,23.08333,70.13333
17935,17935,Gāndarbal,16271,34.22619,74.77478
17936,17936,Gagret,3025,31.65846,76.06144
17937,17937,Fatehpur Chaurāsi,5931,26.78925,80.26547
17938,17938,Fyzābād,153047,26.77549,82.15018
17939,17939,Dūngarpur,45195,23.84306,73.71466
17940,17940,Dindori,19263,22.94141,81.07975
17941,17941,Dīdwāna,49852,27.40096,74.57537
17942,17942,Dhanaula,19281,30.28216,75.57341
17943,17943,Dewā,14375,27.03621,81.16692
17944,17944,Deogarh,21134,21.53827,84.73337
17945,17945,Davangere,435128,14.46693,75.92694
17946,17946,Chhatarpur,111594,24.9177,79.58871
17947,17947,Chengannūr,25043,9.31575,76.61513
17948,17948,Charkhāri,24881,25.40304,79.74877
17949,17949,Burla,40816,21.50976,83.87259
17950,17950,Birūr,23493,13.59723,75.97167
17951,17951,Bilgi,16257,16.34714,75.61804
17952,17952,Bilariāganj,13244,26.19593,83.2269
17953,17953,Bhīlwāra,326431,25.34707,74.64081
17954,17954,Bhilai,625138,21.20919,81.4285
17955,17955,Bhigvan,8753,18.3007,74.76701
17956,17956,Bhawāni Mandi,38030,24.41582,75.83552
17957,17957,Bhavnagar,605882,21.76287,72.15331
17958,17958,Bhāgalpur,361548,25.24446,86.97183
17959,17959,Bhadreswar,121662,22.82449,88.33841
17960,17960,Benīganj,10418,27.29293,80.44364
17961,17961,Belagavi,428720,15.85212,74.50447
17962,17962,Basavana Bāgevādi,30827,16.57278,75.97252
17963,17963,Bāruni,84888,25.47509,85.96813
17964,17964,Barpathār,7445,26.28709,93.88844
17965,17965,Bānposh,10430,22.24834,84.81044
17966,17966,Bāngarmau,37425,26.8912,80.21149
17967,17967,Baldeogarh,8282,24.75619,79.06715
17968,17968,Balarāmpur,22847,23.09714,86.22292
17969,17969,Bālāpur,42401,20.66612,76.77386
17970,17970,Bada Barabīl,56870,22.11186,85.38684
17971,17971,Azamgarh,116644,26.06832,83.18358
17972,17972,Aurangābād,95929,24.75204,84.3742
17973,17973,Arang,17503,21.19639,81.96912
17974,17974,Aonla,50011,28.27402,79.16521
17975,17975,Amrāvati,603837,20.93333,77.75
17976,17976,Amalner,97369,21.03983,75.05887
17977,17977,Ahraura,25075,25.01579,83.03294
17978,17978,Achalpur,111278,21.25665,77.51006
17979,17979,Kheri Sāmpla,10891,28.7781,76.7756
17980,17980,Muvattupuzha,29246,9.97985,76.57381
17981,17981,Singrauli,185580,24.19973,82.67535
17982,17982,Morigaon,20807,26.24908,92.34764
17983,17983,Bhagirathpur,3500,26.2695,86.06346
17985,17985,Kadmat,5404,11.22467,72.77482
17986,17986,Koyali,1148,20.02945,76.49074
17988,17988,Shiraz,1249942,29.61031,52.53113
17991,17991,Nekā,48847,36.65079,53.29905
17995,17995,Shahrud,131889,36.41819,54.97628
17996,17996,Damāvand,29144,35.71842,52.06958
17999,17999,Khomeynī Shahr,277334,32.6856,51.53609
18003,18003,Mahdishahr,21000,35.71071,53.35394
18117,18117,Tokoname,49554,34.88333,136.85
18118,18118,Tanabe,70972,33.73333,135.36667
18119,18119,Shirahamachō-usazakiminami,23180,34.78333,134.71667
18120,18120,Ōi,50593,35.85091,139.51998
18121,18121,Mori,18306,34.83333,137.93333
18122,18122,Minano,9497,36.07356,139.09994
18123,18123,Marugame,82090,34.28333,133.78333
18125,18125,Ezhva,56000,61.81281,50.72834
18130,18130,Chernoistochinsk,3646,57.73639,59.87194
18132,18132,Buzuluk,87714,52.7807,52.2635
18148,18148,Zykovo,5365,55.95503,93.16093
18149,18149,Yuzhnoural’sk,39200,54.4418,61.2536
18150,18150,Vishnëvogorsk,5800,55.9913,60.6579
18151,18151,Varna,9906,53.38194,60.97472
18152,18152,Usyatskoye,1400,52.56806,85.76085
18153,18153,Topol’noye,1100,51.5105,84.4813
18154,18154,Staryy Nadym,2766,65.61182,72.68417
18155,18155,Sorokino,6203,53.75,84.91667
18156,18156,Soloneshnoye,4716,51.6544,84.3197
18157,18157,Slavgorod,34141,52.9978,78.6449
18158,18158,Shchelkun,3044,56.30338,60.94831
18159,18159,Salym,5605,60.0625,71.47889
18160,18160,Petropavlovskoye,2839,52.0712,84.107
18161,18161,Nizhniy Ingash,8458,56.2003,96.5373
18162,18162,Krasnyy Yar,3128,57.1275,84.53028
18163,18163,Krasnoyarsk,1090811,56.01839,92.86717
18164,18164,Krasnokamensk,4773,54.33389,93.25944
18165,18165,Kosh-Agach,5732,49.99273,88.67598
18166,18166,Korkino,40046,54.8913,61.3969
18167,18167,Kommunar,2730,54.34835,89.28297
18168,18168,Karabash,15630,55.4808,60.2157
18169,18169,Irtyshskiy,4434,58.33333,68.13333
18170,18170,Irbit,41647,57.67052,63.071
18171,18171,Borovoy,5942,55.43333,86.08333
18172,18172,Bogotol,23622,56.20778,89.53417
18173,18173,Zhigalovo,5272,54.81061,105.15808
18174,18174,Turka,1472,52.9492,108.2217
18175,18175,Novonukutskiy,3121,53.7,102.7117
18176,18176,Tambovka,7834,50.09968,128.05724
18177,18177,Skovorodino,10007,53.98473,123.9403
18178,18178,Shilka,14132,51.85,116.03333
18179,18179,Severomuysk,3962,56.14806,113.42667
18238,18238,Kogon Shahri,62300,39.72746,64.55466
18239,18239,Paxtakor Shahri,21384,40.31181,67.95667
18240,18240,Asaka,56736,40.64153,72.23868
18243,18243,Oltiariq,25543,40.39194,71.47417
18244,18244,Qizilcha,3400,40.7107,66.13671
18261,18261,Ninh Hòa,240750,12.49187,109.12495
18270,18270,Cần Giờ,55137,10.41115,106.95474
18272,18272,Bắc Kạn,17701,22.14701,105.83481
18275,18275,Cung Kiệm,80000,21.18697,106.16076
18628,18628,Vakhrushi,10330,58.68472,50.02611
18630,18630,Ust’-Katav,25046,54.9366,58.1757
18634,18634,Tukan,1808,53.8409,57.4552
18645,18645,Sedkyrkeshch,1973,61.72358,50.95212
18646,18646,Sarapul,98830,56.47633,53.79782
18656,18656,Nyazepetrovsk,12717,56.05306,59.60278
18669,18669,Mayskoye,1190,52.27244,50.03383
18674,18674,Lyamino,5000,58.2839,57.725
18687,18687,Kizel,21807,59.04709,57.64767
18694,18694,Kerchevskiy,2990,59.9456,56.2959
18696,18696,Kalino,2473,58.2504,57.6085
18698,18698,Izhma,3599,65.00833,53.91128
18705,18705,Ilek,9898,51.52709,53.38306
18749,18749,Ranong,24561,9.96583,98.63476
18750,18750,Lang Suan,16142,9.94561,99.07847
18751,18751,Ban Tak,18384,17.04325,99.08128
18756,18756,Na Klang,31024,17.3072,102.18886
18762,18762,Pak Chong,48999,14.70802,101.41614
18764,18764,Nan,24670,18.78378,100.77899
18765,18765,Nakhon Ratchasima,126391,14.97066,102.10196
18774,18774,Kalasin,55102,16.43281,103.50658
18781,18781,Bang Rakam,16841,16.75847,100.11742
18782,18782,Bang Pa-in,20484,14.22783,100.57589
18790,18790,Varzob,2154,38.77369,68.81776
18791,18791,Vahdat,45693,38.55632,69.01354
18793,18793,Avzikent,10373,37.80333,69.27722
19286,19286,Komatsu,108509,36.40263,136.45088
19287,19287,Kōchi,7203,34.70009,138.93739
19288,19288,Kamirenjaku,178739,35.69423,139.55495
19289,19289,Kadogawa,17526,32.47126,131.65452
19290,19290,Izumiōtsu,73767,34.5,135.4
19291,19291,Iwai,42497,36.05,139.9
19292,19292,Hikone,110925,35.25,136.25
19293,19293,Hachiōji,561344,35.65583,139.32389
19294,19294,Fukuoka,1603543,33.6,130.41667
19295,19295,Aya,7023,31.98333,131.26667
19296,19296,Abu,3372,34.5,131.46667
19297,19297,Wada,7717,35.03709,140.01624
19298,19298,Toride,80716,35.9,140.08333
19299,19299,Tōno,26110,39.31667,141.53333
19300,19300,Sakura,173740,35.71667,140.23333
19301,19301,Toyoura,4205,42.57306,140.70833
19302,19302,Oshamambe,5694,42.50932,140.37733
19303,19303,Kuromatsunai,2739,42.66806,140.30611
19304,19304,Hanawa,36925,40.18361,140.78722
19305,19305,Bibai,29028,43.32472,141.85861
19306,19306,Akabira,14214,43.55139,142.05306
19307,19307,Yomogita,2740,40.98015,140.65455
19311,19311,Kurihara,66565,38.75,141.0
19313,19313,Yoshitomi,6875,33.60247,131.17599
19315,19315,Izumizaki,6265,37.15937,140.29692
19316,19316,Nagatoro,6838,36.10311,139.10951
19319,19319,Fuchū,260508,35.67452,139.48216
19322,19322,Semboku,25857,39.7093,140.74654
19326,19326,Kyzyl-Suu,15075,42.34211,78.00644
19327,19327,Gul’cha,13755,40.3138,73.44418
19331,19331,Sangsŏng-ni,9888,39.16944,126.88556
19332,19332,Hŭngnam,346082,39.84198,127.63206
19333,19333,Sŭngam-nodongjagu,11406,41.66972,129.66889
19335,19335,Kilju,63652,40.96417,129.32778
19336,19336,Chasŏng,12736,41.46083,126.64139
19338,19338,Pyeongtaek,364694,36.99472,127.08889
19339,19339,Masan,434371,35.12725,126.83149
19340,19340,Goyang-si,1073069,37.65639,126.835
19341,19341,Gijang,43064,35.24417,129.21389
19342,19342,Anseong,69255,37.01083,127.27028
19353,19353,Martuk,7756,50.74746,56.50611
19354,19354,Atyrau,290700,47.11667,51.88333
19356,19356,Taldykorgan,116558,45.01556,78.37389
19357,19357,Semey,292780,50.42675,80.26669
19358,19358,Tughyl,6696,47.72497,84.20585
19360,19360,Baikonur,70000,45.61667,63.31667
19361,19361,Granitogorsk,2004,42.744,73.46848
19362,19362,Fyodorov,8317,53.63809,62.69653
19363,19363,Borovskoy,9659,53.7927,64.18268
19364,19364,Boko,1052,49.05632,81.63721
19366,19366,Arys,36285,42.43015,68.8087
19368,19368,Aksuat,6696,48.71667,83.7
19369,19369,Zavodskoy,6043,52.47031,72.01514
19373,19373,Point Pedro,89810,9.81667,80.23333
19374,19374,Minuwangoda,7772,7.1663,79.9533
19420,19420,Dellok,2000,16.04072,97.91773
19423,19423,Turt,2140,51.50725,100.66257
19621,19621,Sinala,2802,13.8057,120.97463
19622,19622,Silanga,2350,11.81806,124.84306
19623,19623,Siay,2351,7.69611,122.86306
19624,19624,San Vicente,2705,13.7,123.2
19625,19625,San Vicente,2081,11.1183,124.5657
19627,19627,Santa Angel,2344,11.3068,122.6408
19628,19628,Santa Fe,2231,15.0103,120.2102
19629,19629,San Pedro,2698,12.46084,121.01041
19630,19630,San Pascual,5939,13.12888,122.97709
19631,19631,San Mariano,12441,16.98265,122.01404
19632,19632,San Juan,121430,14.6,121.0333
19633,19633,San Antonio,4374,13.371,123.4202
19634,19634,Salvacion,2361,12.13287,119.93281
19635,19635,Sagurong,2243,13.7805,122.9594
19636,19636,Rizal,2866,13.95,122.28333
19637,19637,Quinagaringan,2153,11.1222,122.5875
19638,19638,Punang,2533,9.0169,118.0495
19640,19640,Polong Norte,3063,15.903,120.42149
19641,19641,Polanco,3817,8.5329,123.3617
19642,19642,Pitogo,3493,5.88823,121.31215
19644,19644,Pilar,2812,9.829,124.3273
19645,19645,Payao,4674,7.58667,122.80278
19646,19646,Pasibi West,3201,15.8587,120.37935
19647,19647,Parang,9681,5.9137,120.9056
19648,19648,Pantay Na Matanda,5791,14.1175,121.12111
19650,19650,Pajo,3051,11.24121,124.01067
19651,19651,Ocaña,13898,10.0656,123.6244
19652,19652,New Visayas,14758,7.52333,125.62333
19653,19653,New Lagao,2223,6.70235,124.64141
