,Unnamed: 0,villeID,size,lat,long
560,560,Namanyere,28218,-7.51667,31.05
562,562,Mikumi,16780,-7.40409,36.98309
564,564,Magole,18753,-6.37697,37.37373
565,565,Kilindoni,12409,-7.91446,39.66204
566,566,Ilembula,18870,-8.9,34.58333
568,568,Bariadi,33865,-2.8,33.98333
569,569,Songea,286285,-10.68333,35.65
570,570,Maposeni,19472,-10.58333,35.4
639,639,Tororo,40400,0.69299,34.18085
640,640,Sironko,14000,1.23132,34.24773
846,846,Al Mubarraz,290802,25.40768,49.59028
918,918,Az Zabadānī,29549,33.72488,36.1005
922,922,Moïssala,17281,8.3404,17.7663
1101,1101,Wundanyi,12501,-3.39642,38.35729
1102,1102,Pumwani,29616,-1.28333,36.85
1103,1103,Lamu,25385,-2.27169,40.90201
1129,1129,Bayān,30635,29.3032,48.04881
1170,1170,Tājūrā’,100000,32.88167,13.35056
1171,1171,Zawiya,186123,32.75222,12.72778
1173,1173,Ubari,33569,26.59034,12.77511
1174,1174,Youssoufia,64910,32.24634,-8.52941
1179,1179,Settat,119082,33.00103,-7.61662
1184,1184,Figuig (Centre),12516,32.10891,-1.22855
1185,1185,Arfoud,23637,31.4353,-4.23258
1187,1187,Dakhla,55618,30.41145,-9.55344
1196,1196,Antakotako,11000,-15.31667,49.8
1936,1936,Ressano Garcia,110000,-25.44278,31.99528
1940,1940,Ugep,200276,5.80865,8.08098
1941,1941,Suleja,162135,9.18059,7.17939
1942,1942,Okrika,133271,4.74215,7.08368
1946,1946,Lafia,127236,8.4939,8.51532
1947,1947,Jalingo,117757,8.89367,11.3596
1950,1950,Iperu,15935,6.91002,3.66557
1952,1952,Ijero-Ekiti,167632,7.81514,5.06716
1953,1953,Idah,68703,7.11345,6.73866
1955,1955,Gombe,250258,10.28969,11.16729
1960,1960,Darazo,18415,10.9992,10.41062
2490,2490,Ash Shajarah,11243,32.64391,35.94175
2491,2491,‘Anjarah,17634,32.30667,35.75443
2492,2492,Ḩayy al Quwaysimah,32396,31.91037,35.94975
2602,2602,Khorramshahr,330606,30.44079,48.18428
2657,2657,Sangmélima,80036,2.93333,11.98333
2658,2658,Manjo,41740,4.8428,9.8217
2659,2659,Lagdo,33564,9.05828,13.66605
2660,2660,Dschang,99582,5.44397,10.05332
3046,3046,Wik’ro,64000,13.79525,39.60303
3047,3047,Sheno,22900,9.32936,39.29337
3048,3048,Mīzan Teferī,62000,6.99865,35.58879
3049,3049,Hāgere Hiywet,99900,8.98333,37.85
3050,3050,Gambēla,97600,8.25,34.58333
3051,3051,Dangila,56000,11.26667,36.83333
3052,3052,Āsbe Teferī,30772,9.08569,40.86708
3053,3053,Āreka,84500,7.06667,37.7
3054,3054,Alamata,70400,12.416,39.55971
3453,3453,Sefwi,14206,6.52306,-1.63596
3454,3454,Kasoa,86753,5.53449,-0.41679
3455,3455,Mampong,51745,7.06273,-1.4001
3456,3456,Domaa-Ahenkro,37354,7.27386,-2.87348
3457,3457,Akwatia,33784,6.04024,-0.80876
3467,3467,Kintinian,27969,11.6,-9.38333
3720,3720,Zikhron Ya‘aqov,23206,32.56645,34.95628
3723,3723,maalot Tarshīhā,21836,33.01667,35.26667
3734,3734,‘Isfiyā,12503,32.71836,35.06509
3835,3835,Tolga,50575,34.72224,5.37845
3836,3836,Timimoun,49237,29.26417,0.23583
3837,3837,Tebesbest,41091,33.11667,6.08333
3838,3838,Saïda,142497,34.83033,0.15171
3845,3845,Ītāy al Bārūd,77606,30.88697,30.66724
3846,3846,Darāw,61790,24.40796,32.92324
3847,3847,Abū Kabīr,154466,30.72508,31.67148
4183,4183,Cameia,14138,-11.69055,20.83922
4184,4184,Negage,92950,-7.75938,15.2722
4185,4185,Caxito,55000,-8.57848,13.66425
4186,4186,Ambriz,11640,-7.86232,13.11935
4187,4187,Caála,130000,-12.8525,15.56056
4188,4188,Bocoio,35000,-12.47017,14.13688
4189,4189,Quissecula,90000,-11.39223,15.09201
4520,4520,Orodara,33422,10.98115,-4.91885
4535,4535,Godomè,253262,6.38948,2.34581
4536,4536,Cové,43554,7.22097,2.34017
4626,4626,Shakawe,10589,-18.36536,21.84219
4675,4675,Watsa,47278,3.03716,29.53551
4676,4676,Mwene-Ditu,189177,-7.00906,23.45278
4677,4677,Kabare,37034,-2.49682,28.79081
4678,4678,Mokambo,34762,-12.42765,28.34684
4679,4679,Tshela,64210,-4.99707,12.9484
4680,4680,Mangina,55439,0.60419,29.31004
4681,4681,Ippy,28319,6.26793,21.22468
4682,4682,Batangafo,24119,7.30082,18.2833
4683,4683,Pointe-Noire,1032000,-4.77609,11.86352
4685,4685,Brazzaville,1982000,-4.26613,15.28318
4740,4740,Zoukougbeu,15375,6.76229,-6.8638
4742,4742,Zoroyo,10441,5.89548,-6.65079
4771,4771,Momiraso,10431,9.70654,-5.16887
4942,4942,Kokoumbo,10493,6.54246,-5.25925
4948,4948,Gaoulou,15794,5.03347,-6.15137
4960,4960,Dabou,138083,5.32556,-4.37685
4968,4968,Bédigoazon,12477,6.56363,-7.77749
4986,4986,Dagadji,21333,5.12569,-6.81483
5016,5016,Flakièdougou,15815,8.48273,-3.1273
5190,5190,Al Ḩudaydah,617871,14.79781,42.95452
5193,5193,Wesselsbron,42552,-27.8549,26.36583
5194,5194,Bela Bela,90210,-24.88333,28.28333
5196,5196,Soweto,1695047,-26.26781,27.85849
5197,5197,Scottburgh,23949,-30.28666,30.75316
5198,5198,Richmond,32445,-29.87196,30.27235
5199,5199,Mokopane,101090,-24.19436,29.00974
5200,5200,Nelspruit,110159,-25.47448,30.97033
5201,5201,Mooirivier,10132,-29.20824,29.9946
5202,5202,Hennenman,22847,-27.97654,27.02423
5203,5203,Hendrina,15871,-26.15881,29.71528
5204,5204,Giyani,37024,-23.30246,30.71868
5205,5205,George,157394,-33.963,22.46173
5206,5206,Deneysville,12397,-26.8908,28.09707
5207,5207,Clocolan,12318,-28.91367,27.56555
5208,5208,Benoni,605344,-26.18848,28.32078
5209,5209,Kraaifontein,57911,-33.84808,18.71723
5213,5213,Zvishavane,59717,-20.32674,30.06648
5214,5214,Epworth,123250,-17.89,31.1475
5306,5306,Kigali,1132686,-1.94995,30.05885
5307,5307,Şabyā,54108,17.1495,42.62537
5308,5308,Rābigh,41759,22.79856,39.03493
5309,5309,Aţ Ţaraf,21386,25.36232,49.72757
5310,5310,Al-`Ula,32413,26.60853,37.92316
5314,5314,Ad Dawādimī,54474,24.50772,44.39237
5315,5315,Ash Shafā,72190,21.07268,40.31842
5317,5317,Ad Dabbah,11626,18.05,30.95
5412,5412,Sa'dah,51870,16.94021,43.76393
5413,5413,Ḩajjah,43549,15.69425,43.60582
5424,5424,Koungou,18118,-12.73361,45.20417
5425,5425,Volksrust,43378,-27.36541,29.88175
5427,5427,Senekal,39584,-28.31971,27.62082
5428,5428,Schweizer-Reneke,70214,-27.18871,25.32931
5431,5431,Heidelberg,64199,-26.50476,28.35921
5432,5432,Berea,15000,-29.85185,30.99337
5436,5436,Kitwe,400914,-12.80243,28.21323
5437,5437,Kapiri Mposhi,37942,-13.97147,28.66985
5439,5439,Chitungwiza,371244,-18.01274,31.07555
5744,5744,Mbabane,76218,-26.31667,31.13333
5746,5746,Beïnamar,12901,8.6698,15.3813
5874,5874,Sepuka,25657,-4.75,34.53333
5875,5875,Puma,17092,-5.0,34.73333
5877,5877,Mahanje,15009,-9.93333,35.33333
5878,5878,Kigoma,232388,-4.87694,29.62667
5879,5879,Kasamwa,27681,-2.85,32.43333
5880,5880,Ilula,29193,-7.6766,36.03658
5881,5881,Igurusi,25000,-8.85,33.85
5882,5882,Igurubi,10083,-4.0,33.7
5883,5883,Butiama,16376,-1.76667,33.96667
5884,5884,Tandahimba,17041,-10.75,39.63333
5885,5885,Newala Kisimani,38099,-10.95,39.28333
5886,5886,Kitangari,10956,-10.65,39.33333
5965,5965,Ntungamo,16915,-0.88333,29.65
5968,5968,Bweyogerere,11473,0.35773,32.66332
6769,6769,Ramallah,24599,31.89964,35.20422
6773,6773,‘Anātā,11946,31.80924,35.25902
6777,6777,Old City,36000,31.77667,35.23417
6992,6992,Mozambique,54315,-15.03466,40.73447
6994,6994,Gobabis,16321,-22.45338,18.97159
6999,6999,Tessaoua,35775,13.75737,7.9874
7000,7000,Kollo,10376,13.3043,2.339
7001,7001,Dogondoutchi,31767,13.6403,4.02649
7002,7002,Ayorou,26290,14.73075,0.91739
7004,7004,Uromi,108608,6.7,6.33333
7009,7009,Rano,17972,11.55684,8.58065
7014,7014,Okene,479178,7.55122,6.23589
7015,7015,Ogoja,37466,6.6584,8.79923
7016,7016,Obubra,12885,6.07672,8.33241
7017,7017,Nsukka,111017,6.85783,7.39577
7018,7018,Kaduna,1582102,10.52641,7.43879
7021,7021,Hadejia,110753,12.45347,10.04115
7022,7022,Gwaram,15806,11.27727,9.88385
7024,7024,Epe,84711,6.58412,3.98336
7026,7026,Ebute Ikorodu,535619,6.60086,3.48818
7030,7030,Benin City,1782000,6.33815,5.62575
7031,7031,Bama,118121,11.52134,13.68952
7035,7035,Afikpo,71866,5.89258,7.93534
7250,7250,Voi,53353,-3.39605,38.55609
7251,7251,Takaungu,10760,-3.6835,39.85687
7252,7252,Upper Gilgil,60711,-0.21209,36.27248
7253,7253,Eldoret,475716,0.52036,35.26993
7327,7327,Az Zuwaytīnah,21015,30.9522,20.12022
7328,7328,Tarhuna,52420,32.43501,13.6332
7331,7331,Al-'Alūaṣ,17122,32.71007,13.96713
7333,7333,Sidi Bennour,40044,32.65236,-8.42769
7334,7334,Ouarzazat,57245,30.91894,-6.89341
7339,7339,Bouarfa,28846,32.53379,-1.96209
7340,7340,Berrechid,93954,33.26553,-7.58754
7347,7347,Mananara,37224,-16.16864,49.76622
7348,7348,Imerintsiatosika,74085,-18.98333,47.31667
7349,7349,Arivonimamo,29997,-19.01667,47.18333
7350,7350,Alarobia,16000,-18.96667,47.73333
7390,7390,Balaka,18902,-14.97928,34.95575
7696,7696,Shashamane,208400,7.2,38.6
7697,7697,Mīlē,21700,11.42172,40.76282
7698,7698,Maych’ew,49600,12.7875,39.54222
7699,7699,Kuyera,21100,7.3,38.65
7700,7700,Filakit,26500,11.66667,38.8
7701,7701,Āsela,139500,7.95,39.13333
7702,7702,Arerti,23000,13.95,40.66667
7703,7703,Duuban,15000,6.67985,46.06619
7704,7704,Mehoni,29200,12.79881,39.64448
7705,7705,Shinshicho,38400,7.20556,37.77778
8263,8263,Judita,20000,32.40792,35.70802
8269,8269,Russeifa,268237,32.01778,36.04639
8488,8488,Mumford,13983,5.26176,-0.75897
8489,8489,Esim,35487,4.86641,-2.24181
8705,8705,Jerusalem,971800,31.76904,35.21633
8707,8707,Tirat Karmel,27822,32.76021,34.97183
8709,8709,Ramla,76246,31.92923,34.86563
8710,8710,Kiryat Gat,61817,31.60998,34.76422
8714,8714,Judeida Makr,21163,32.9282,35.15705
8891,8891,Aş Şuwayrah,42354,32.92556,44.77583
8892,8892,Khāliş,70046,33.80809,44.53343
8899,8899,Borūjerd,251958,33.8973,48.7516
8919,8919,Deir Ḥannā,10339,32.86196,35.36365
8923,8923,Rahat,19586,31.39547,34.75699
8927,8927,Kuseifa,21079,31.24535,35.0931
8928,8928,Herzliya Pituah,10000,32.17409,34.8028
9358,9358,Tzaneen,16954,-23.83322,30.16351
9359,9359,Randfontein,133654,-26.1844,27.70203
9360,9360,Port Alfred,17959,-33.58601,26.88329
9361,9361,Plettenberg Bay,19445,-34.05274,23.3716
9362,9362,Orkney,13435,-26.98023,26.67272
9363,9363,Mossel Bay,59031,-34.18307,22.14605
9364,9364,Montagu,15176,-33.78664,20.12106
9365,9365,Middelburg,154706,-25.77507,29.46482
9366,9366,Krugersdorp,378821,-26.08577,27.77515
9369,9369,Barberton,67927,-25.78842,31.05319
9372,9372,Samfya,20470,-11.36491,29.55652
9373,9373,Mpika,28445,-11.83431,31.45287
9374,9374,Luanshya,113365,-13.13667,28.41661
9375,9375,Kalomo,15394,-17.02581,26.48369
9377,9377,Chililabombwe,57328,-12.36475,27.82286
9378,9378,Victoria Falls,35199,-17.93285,25.83066
9379,9379,Shurugwi,22900,-19.67016,30.00589
9380,9380,Ruwa,94083,-17.88972,31.24472
9692,9692,El Meghaïer,39106,33.95139,5.92222
9694,9694,El Abiodh Sidi Cheikh,39283,32.893,0.54839
9708,9708,Munsha‘at Abū ‘Umar,22543,30.90711,32.02341
9709,9709,Marsa Alam,10000,25.06305,34.89005
9710,9710,Dishnā,64744,26.12242,32.46749
9711,9711,Al Jammālīyah,99641,31.18065,31.86497
9712,9712,Al Burj,60320,31.58229,30.98095
9713,9713,Al Başalīyah Baḩrī,32920,25.15,32.71667
9821,9821,Al Qaryatayn,31748,34.22956,37.24066
9824,9824,Béré,15431,9.3202,16.1552
9864,9864,Midoun,32000,33.80813,10.99228
9867,9867,Ar Rudayyif,26976,34.3827,8.15549
9935,9935,Vikindu,23307,-7.00667,39.29849
9936,9936,Misungwi,35530,-2.85,33.08333
9937,9937,Kishapu,16371,-3.61667,33.86667
9938,9938,Kidodi,35953,-7.60361,37.00438
9939,9939,Katumba,108558,-9.23333,33.61667
9940,9940,Kasulu,37349,-4.57667,30.1025
9941,9941,Hedaru,20231,-4.5,37.9
9942,9942,Dodoma,180541,-6.17221,35.73947
9943,9943,Lindi,95096,-9.99709,39.71649
10025,10025,Wakiso,20530,0.40444,32.45944
10026,10026,Nebbi,30354,2.47826,31.08893
10163,10163,Nouna,32428,12.72939,-3.86305
10164,10164,Djibo,61462,14.0994,-1.62554
10166,10166,Béguédo,21894,11.78083,-0.73389
10180,10180,Tchaourou,43862,8.88649,2.59753
10181,10181,Pobé,49232,6.98008,2.6649
10182,10182,Ndali,23264,9.8636,2.72094
10183,10183,Cotonou,679012,6.36536,2.41833
10184,10184,Bembèrèkè,31176,10.22827,2.66335
10257,10257,Serowe,55676,-22.38754,26.71077
10328,10328,Rutshuru,82680,-1.18666,29.44669
10329,10329,Lubumbashi,2221925,-11.66089,27.47938
10330,10330,Basankusu,41141,1.22095,19.80205
10391,10391,Zaliohouan,27050,6.79519,-6.2355
10392,10392,Zaïbo,17406,6.9893,-6.66673
10402,10402,Tieupleu,10033,7.04069,-8.15318
10404,10404,Tiassalé,35090,5.89839,-4.82293
10424,10424,Man,241969,7.41251,-7.55383
10427,10427,Madogé,10815,7.02886,-6.47253
10722,10722,Turaif,40819,31.67252,38.66374
10725,10725,Shendi,53568,16.6915,33.4341
10727,10727,Al Fūlah,11238,11.73292,28.35786
10728,10728,Ed Damer,103941,17.59898,33.97205
10936,10936,Khorixas,12021,-20.36667,14.96667
10937,10937,Zaria,975153,11.11128,7.7227
10938,10938,Yola,96006,9.20839,12.48146
10941,10941,Uba,11648,10.45509,13.22233
10942,10942,Tegina,24037,10.0706,6.1906
10944,10944,Ore,13905,6.74716,4.8761
10945,10945,Olupona,95002,7.60039,4.19264
10947,10947,Nkpor,103733,6.15038,6.83042
10949,10949,Madagali,12919,10.88942,13.62832
10951,10951,Kafarati,11535,10.38304,11.09567
10953,10953,Igede-Ekiti,87282,7.6685,5.12627
10958,10958,Enugu-Ukwu,68785,6.17146,7.00525
10959,10959,Effium,86945,6.63105,8.05814
10960,10960,Biliri,15976,9.86709,11.22594
10965,10965,Aramoko-Ekiti,74491,7.70483,5.04054
10967,10967,Agbor,67610,6.25375,6.1942
11443,11443,Jabālyā,168568,31.5272,34.48347
11445,11445,Qalqīlyah,43212,32.18966,34.97063
12218,12218,Segev Shalom,10362,31.19918,34.83956
12220,12220,Kadima Zoran,22490,32.27782,34.9194
12471,12471,Takoradi,389114,4.89816,-1.76029
12472,12472,Ho,130701,6.60084,0.4713
12686,12686,Shūshtar,77507,32.04972,48.84843
13268,13268,Saurimo,393000,-9.66078,20.39155
13269,13269,Bailundo,70481,-9.57499,15.99442
13270,13270,Cambundi Catembo,17212,-10.07531,17.55058
13271,13271,Santa Clara,29000,-10.19156,15.43408
13273,13273,Calonamba,15000,-13.77395,15.09111
13579,13579,Edéa,103861,3.8,10.13333
13580,13580,Bandjoun,31750,5.37568,10.41326
13695,13695,Katiola,59641,8.13728,-5.10095
13704,13704,Gbon,12464,9.83238,-6.44716
13709,13709,Ebilassokro,18530,6.37917,-3.34722
13712,13712,Doukouya,19290,6.42623,-5.55925
13718,13718,Danané,78614,7.25957,-8.15498
13723,13723,Bonoufla,30420,7.12906,-6.47424
13740,13740,Erémankono,18428,5.92829,-5.02252
13855,13855,Sheraro,36100,14.40076,37.93399
13856,13856,Mek’ī,75200,8.15,38.81667
13857,13857,Ibnat,27000,12.13333,38.05
13858,13858,Debre Tabor,125300,11.85,38.01667
13952,13952,Ngong,102323,-1.3527,36.6699
13953,13953,Migori,71668,-1.06343,34.47313
13954,13954,Githunguri,63319,-1.05754,36.77625
13965,13965,Moroni,74749,-11.70216,43.25506
13974,13974,Al Aḩmadī,637411,29.07694,48.08389
13987,13987,Beirut,1916100,33.89332,35.50157
13988,13988,Nabatîyé et Tahta,120000,33.37889,35.48389
14010,14010,Hūn,24431,29.12684,15.94772
14011,14011,Ar Rayāyinah,15031,32.02684,12.35643
14021,14021,Reçani,20469,31.28318,-4.26565
14025,14025,Kenitra,366570,34.26101,-6.5802
14032,14032,Vondrozo,19949,-22.81667,47.28333
14033,14033,Vohipeno,15622,-22.35,47.83333
14034,14034,Kopoky,15000,-25.2,45.2
14035,14035,Ifanadiana,16607,-21.3,47.63333
14036,14036,Ankazondandy,16000,-18.7,47.78333
14044,14044,Ségou,153349,13.44032,-6.25947
14072,14072,Luchenza,11939,-16.00693,35.30947
14073,14073,Liwonde,22469,-15.06665,35.22543
14074,14074,Lilongwe,646750,-13.96692,33.78725
14586,14586,Idhnā,18727,31.55874,34.97436
14591,14591,As Samū‘,19355,31.39671,35.06611
14592,14592,Al Yāmūn,16164,32.48563,35.23011
14789,14789,Weldiya,104000,11.8277,39.59164
14790,14790,Waka,26500,7.06667,37.16667
14791,14791,Huruta,27500,8.15,39.35
14792,14792,Hāyk’,28500,11.3,39.68333
14793,14793,Gīnch’ī,37600,9.03333,38.15
14794,14794,Debre Werk’,10579,10.66667,38.16667
14795,14795,Āykel,34000,12.55,37.06667
14796,14796,Qorof,37080,6.58222,46.43333
14797,14797,Neefkuceliye,34000,6.55459,45.38992
14798,14798,Ginja Bet,24800,10.85029,36.89277
15032,15032,Okondja,12962,-0.65487,13.67533
15199,15199,Sakumona,32886,5.62135,-0.05193
15200,15200,Ahwiaa,32163,6.76051,-1.59402
15436,15436,Shefar‘am,42137,32.80583,35.16895
15437,15437,Petaẖ Tiqva,253529,32.08707,34.88747
15438,15438,Or Yehuda,36813,32.02923,34.85788
15441,15441,Kafr Qari‘,19018,32.50666,35.05392
15443,15443,Gedera,30798,31.81456,34.77998
15444,15444,Gan Yavne,23869,31.78737,34.70659
15446,15446,‘Ar‘ara,24904,32.49553,35.09411
15447,15447,Abū Sinān,14099,32.95891,35.17152
15593,15593,Tlemcen,173531,34.87833,-1.315
15602,15602,’Aïn el Bell,31916,34.34381,3.22475
15604,15604,Aflou,93585,34.11279,2.10228
15612,15612,Manshīyat al Qanāţir,19185,30.18479,31.10649
15613,15613,Mallawī,212628,27.73264,30.84129
15614,15614,Ihnāsīyah,64058,29.09285,31.02043
15615,15615,‘Izbat ‘Alī as Sayyid,53079,31.15671,30.14775
16199,16199,Cuamba,73268,-14.80306,36.53722
16201,16201,Mariental,13380,-24.62705,17.96471
16202,16202,Ughelli,79986,5.48956,6.00407
16204,16204,Modakeke,119529,7.38299,4.26031
16207,16207,Lere,14620,9.71052,9.34029
16208,16208,Lafiagi,102779,8.85299,5.41641
16210,16210,Ila Orangun,179192,8.01714,4.90421
16211,16211,Igbo-Ukwu,75224,6.01798,7.02027
16212,16212,Gorgoram,12470,12.63958,10.70422
16213,16213,Emure-Ekiti,90645,7.43636,5.45925
16214,16214,Dutsen Wai,22062,10.85009,8.199
16215,16215,Daura,78277,11.5541,11.406
16217,16217,Damboa,21571,11.15534,12.75638
16218,16218,Burutu,16410,5.35328,5.50826
16221,16221,Abeokuta,593100,7.15571,3.34509
16253,16253,Cinkansé,19815,11.11857,0.00993
16254,16254,Kompienga,15024,11.08169,0.72365
16268,16268,Toukountouna,16330,10.50279,1.37437
16269,16269,Sinendé,35267,10.34963,2.37906
16270,16270,Porto-Novo,264320,6.49646,2.60359
16271,16271,Klouékanmè,23763,6.98028,1.84222
16360,16360,Mmadinare,13198,-21.8765,27.7518
16420,16420,Sake,17151,-1.57386,29.04339
16421,16421,Mangbwalu,45318,1.94468,30.03861
16422,16422,Tshilenge,116073,-10.96667,22.9
16423,16423,Inongo,68852,-1.9275,18.2881
16424,16424,Paoua,47703,7.24269,16.44059
16425,16425,Dekoa,19639,6.32229,19.07922
16426,16426,Bossemtele I,11136,5.79695,16.51792
16427,16427,Ouésso,40667,1.61361,16.05167
16491,16491,Tiébissou,24412,7.15772,-5.2248
16497,16497,Tafiré,22284,9.06883,-5.16404
16509,16509,Niapidou,18336,5.34849,-6.05601
16512,16512,Moussadougou,21186,6.154,-5.69334
16531,16531,Guéssabo,17944,6.73668,-6.95487
16542,16542,Ferkessédougou,72476,9.5928,-5.19449
16814,16814,Uíge,322531,-7.60874,15.06131
16815,16815,Soyo,200920,-6.1349,12.36894
16816,16816,Longonjo,23000,-12.90795,15.24845
16817,16817,Capunda,21260,-11.13333,14.46667
16818,16818,Camacupa,59000,-12.01667,17.48333
17158,17158,Touboro,28987,7.7708,15.3568
17160,17160,Nkoteng,27677,4.51667,12.03333
17161,17161,Nkambe,26816,6.63333,10.66667
17162,17162,Mokolo,51999,10.74244,13.80227
17163,17163,Foumbot,74319,5.50803,10.6325
17165,17165,Bamenda,420445,5.9597,10.14597
17166,17166,Akonolinga,30078,3.76667,12.25
17437,17437,Diédrou,10509,6.99139,-7.77825
17446,17446,Bouandougou,13665,8.21598,-5.66962
17452,17452,Boboniessoko,27529,6.96589,-6.65652
17454,17454,Bingerville,82983,5.35581,-3.88537
17463,17463,Akoupé,35970,6.38423,-3.88759
17474,17474,Hannié,10356,5.19401,-7.35304
17478,17478,Gnépasso,15835,4.98218,-7.06024
17604,17604,Pallisa,30745,1.145,33.70944
17608,17608,Kapchorwa,11300,1.40096,34.45038
17830,17830,Tunduma,36556,-9.3,32.76667
17831,17831,Mugango,10550,-1.68333,33.7
17832,17832,Mpwapwa,19806,-6.35,36.48333
17834,17834,Mazinde,20534,-4.8,38.21667
17836,17836,Katoro,11925,-1.39972,31.50028
17837,17837,Chato,27776,-2.63778,31.76694
17838,17838,Chalinze,34335,-6.63784,38.35396
17839,17839,Nanhyanga,13519,-10.8,39.55
17840,17840,Lukuledi,29699,-10.56667,38.8
17841,17841,Chiungutwa,12764,-10.88333,38.98333
17886,17886,Al Līth,72000,20.14804,40.27224
17888,17888,Ad Dilam,35371,23.99104,47.16181
17890,17890,Tokār,22250,18.4254,37.729
17891,17891,Kināna,26233,14.0361,33.1712
17892,17892,Abu Jibeha,21790,11.4562,31.2285
17893,17893,Gereida,120000,11.27543,25.14026
18113,18113,Wādī Mūsá,14000,30.32096,35.47895
18114,18114,Kurayyimah,17837,32.27639,35.59938
18116,18116,Amman,1275857,31.95522,35.94503
18285,18285,Bājil,48218,15.05898,43.28731
18291,18291,Zeerust,17708,-25.53695,26.07512
18292,18292,Wolmaransstad,49366,-27.1974,25.98311
18293,18293,Westonaria,156831,-26.31905,27.6486
18294,18294,Welkom,431944,-27.97742,26.73506
18295,18295,Vredefort,14619,-27.00805,27.3646
18296,18296,Stilfontein,93110,-26.84493,26.76829
18297,18297,Rustenburg,124064,-25.66756,27.24208
18298,18298,Queenstown,105309,-31.89756,26.87533
18305,18305,Alberton,121536,-26.26786,28.12225
18306,18306,Centurion,236580,-25.85891,28.18577
18307,18307,Robertson,27715,-33.80342,19.88537
18309,18309,Midstream,25000,-25.91849,28.19881
18310,18310,Mwinilunga,13798,-11.73584,24.42926
18311,18311,Monze,30257,-16.28333,27.48333
18315,18315,Mashava,12994,-20.03665,30.48225
18316,18316,Marondera,66203,-18.18527,31.55193
18318,18318,Chivhu,10369,-19.02112,30.89218
18722,18722,Qoryooley,51720,1.78784,44.52999
18723,18723,Jilib,43694,0.48829,42.78535
18724,18724,Hobyo,12564,5.3505,48.5268
18726,18726,Berbera,242344,10.43959,45.01432
18727,18727,Juba,450000,4.85165,31.58247
18734,18734,Tallbīsah,38491,34.84072,36.73092
18736,18736,Shahbā,14784,32.85237,36.62847
18741,18741,Dar‘ā,97969,32.61889,36.10213
18748,18748,Lomé,749700,6.12874,1.22154
19323,19323,Taveta,22018,-3.39879,37.68336
19329,19329,Domoni,12262,-12.26067,44.52947
19352,19352,Salwá,40945,29.29583,48.07861
19371,19371,Jounieh,96315,33.98083,35.61778
19376,19376,Maputsoe,61916,-28.8866,27.89915
19400,19400,Şurmān,77114,32.75668,12.57159
19402,19402,Zintan,33000,31.93155,12.25291
19403,19403,Zagora,35154,30.33241,-5.8384
19404,19404,Tahla,25761,34.04965,-4.42162
19407,19407,Meknès,545705,33.89352,-5.54727
19408,19408,El Aïoun,35196,34.58319,-2.50612
19412,19412,Antananarivo,1349501,-18.91368,47.53613
20010,20010,Ukunda,77686,-4.2929,39.56404
20011,20011,Karuri,194342,-0.7,37.18333
20012,20012,Kabarnet,24661,0.49194,35.74303
20013,20013,Takaba,21517,3.35528,40.22278
20039,20039,Ḩawallī,164212,29.33278,48.02861
20059,20059,New Yekepa,24695,7.57944,-8.53778
20060,20060,Nako,13146,-29.61667,27.76667
20075,20075,Brak,16200,27.54956,14.27139
20076,20076,Bin Jawwād,15509,30.80418,18.0772
20078,20078,Al Ghurayfah,23449,26.52161,13.01072
20080,20080,Abū Zayyān,14332,32.09972,12.97861
20087,20087,Ouezzane,58684,34.79584,-5.57849
20088,20088,Mechraa Bel Ksiri,27802,34.57373,-5.95585
20089,20089,Marrakesh,839296,31.63416,-7.99994
20095,20095,Tôlanaro,71258,-25.03249,46.98329
20097,20097,Miandrivazo,21627,-19.52905,45.45559
20098,20098,Mantasoa,10000,-19.01667,47.83333
20103,20103,Sikasso,144786,11.31755,-5.66654
20104,20104,Markala,53738,13.68427,-6.07352
20123,20123,Mangochi,40236,-14.47815,35.26448
20431,20431,Windhoek,268132,-22.55941,17.08323
20436,20436,Tibiri,20019,13.56271,7.04848
20437,20437,Niamey,774235,13.51366,2.1098
20438,20438,Magaria,19419,12.99826,8.90991
20440,20440,Zango,12371,13.05313,8.48574
20442,20442,Wurno,13087,13.29048,5.42373
20445,20445,Sokoto,563861,13.06269,5.24322
20446,20446,Pankshin,31516,9.32541,9.4352
20447,20447,Omoku,11625,5.34388,6.65684
20449,20449,Oke Mesi,79563,7.81667,4.91667
20452,20452,Nafada,22920,11.09596,11.33261
20458,20458,Igbo-Ora,92719,7.43383,3.28788
20459,20459,Gwoza,15176,11.08313,13.69595
20460,20460,Gagarawa,11450,12.40848,9.52881
20462,20462,Deba,17671,10.21187,11.3871
20466,20466,Atani,230000,6.01277,6.74768
20467,20467,Amper,12212,9.35509,9.70121
20468,20468,Abuja,1235880,9.05785,7.49508
20469,20469,Aba,897560,5.10658,7.36667
20899,20899,Subaykhān,25514,34.85305,40.59987
20904,20904,Al Kiswah,23526,33.3581,36.2419
20908,20908,Mao,50681,14.12286,15.31189
20909,20909,Mandelia,19373,11.73017,15.24468
20910,20910,Kyabé,22806,9.45149,18.94493
20912,20912,Bafilo,22543,9.35,1.26667
21074,21074,Jeddah,4697000,21.49012,39.18624
21076,21076,Bariq,75351,18.92966,41.92953
21077,21077,Gebeit,11095,21.06667,36.31667
21254,21254,Waal,24000,6.88658,46.21508
21255,21255,Were Īlu,20600,10.58964,39.43767
21256,21256,Nefas Mewch’a,44200,11.73333,38.46667
21257,21257,Mambuk,24100,11.28333,36.21667
21258,21258,Injibara,47500,11.0,36.91667
21259,21259,Felana,26200,9.46498,42.18447
21260,21260,Dejen,11739,10.16667,38.13333
21261,21261,Ch’iko,49500,6.58333,38.33333
21262,21262,Bako,34100,5.78333,36.56667
21681,21681,Sunyani,92825,7.33991,-2.32676
21682,21682,Akim Oda,60604,5.92665,-0.98577
21683,21683,Navrongo,25470,10.89557,-1.0921
21684,21684,Kpandu,28334,6.99536,0.29306
21685,21685,Asamankese,46061,5.86006,-0.6635
21688,21688,Aconibe,11192,1.29683,10.93691
21915,21915,Rekhasim,12668,32.74907,35.09901
21919,21919,Lod,77223,31.9467,34.8903
21921,21921,Daliyat al Karmel,25000,32.69383,35.04686
21922,21922,Bnei Brak,214444,32.08074,34.8338
21928,21928,Yehud-Monosson,29312,32.0284,34.8796
22337,22337,Safi,15200,31.03608,35.46544
22511,22511,Al Miqdādīyah,50698,33.97861,44.93694
22521,22521,Kūhdasht,100208,33.53335,47.60999
22571,22571,Kouka,17286,13.4345,-1.61361
22573,22573,Dori,46512,14.0341,-0.03261
22574,22574,Bourzanga,27213,13.67806,-1.54611
22586,22586,Sakété,43541,6.73618,2.65866
22587,22587,Kérou,54276,10.82578,2.10479
22752,22752,Yangambi,62082,0.76755,24.43973
22753,22753,Pweto,38298,-8.46604,28.90079
22754,22754,Kanyobagonga,44146,-0.69978,29.17181
22755,22755,Mbandaka,455011,0.04865,18.26034
22756,22756,Inkisi,115317,-5.13122,15.0541
22757,22757,Dibaya-Lubwe,55672,-4.15869,19.8619
22758,22758,Kayes,58737,-4.20493,13.28608
22818,22818,Yakassémé,12733,5.81052,-3.9511
22841,22841,Ouangolodougou,49248,9.96837,-5.14882
22843,22843,Toumoukro,11172,10.3855,-5.75062
22886,22886,Dondo,64643,-9.68456,14.42788
22887,22887,Cuímba,41878,-6.12085,14.62086
22888,22888,Ucuma,21809,-12.96121,15.05958
23216,23216,Ahigbé Koffikro,19351,5.40755,-3.38023
23237,23237,Divo,136627,5.83739,-5.35723
23238,23238,Dignago,15621,6.29164,-6.27945
23272,23272,Kranzadougou,16614,6.48496,-7.20101
23273,23273,Nizahon II,15290,6.37222,-7.39891
23274,23274,Bonon,119938,6.9268,-6.0489
23285,23285,Gbliglo,13485,6.13533,-7.02576
23318,23318,Bogbam,14657,6.38085,-6.19258
23334,23334,Kouto,14245,9.89029,-6.40921
23335,23335,Kouta,10266,5.48849,-5.23249
23341,23341,Kong,15262,9.14943,-4.60982
23811,23811,Vereeniging,474681,-26.67313,27.92615
23812,23812,Thohoyandou,44046,-22.94564,30.48497
23814,23814,Kimberley,142089,-28.73226,24.76232
23816,23816,Eshowe,14786,-28.88649,31.4699
23817,23817,Breyten,12550,-26.30176,29.98696
23818,23818,Allanridge,31700,-27.75431,26.64382
23819,23819,Senanga,10005,-16.11667,23.26667
23820,23820,Kaoma,14212,-14.78333,24.8
23832,23832,Sokoni,25821,-6.43333,39.55
23834,23834,Mungaa,16715,-4.96667,34.88333
23835,23835,Mgandu,23718,-5.95,34.13333
23836,23836,Matai,24070,-8.3,31.51667
23837,23837,Kondoa,23518,-4.9,35.78333
23839,23839,Ikwiriri,13071,-7.95618,38.97164
23881,23881,Namasuba,22507,0.68944,32.42139
23883,23883,Bugembe,11598,0.48213,33.24065
24262,24262,Larnaca,72000,34.92291,33.6233
24542,24542,Ali Sabih,50006,11.15583,42.7125
24562,24562,Megarine,31711,33.19195,6.08695
24569,24569,Chetouane,36776,34.92129,-1.29512
24577,24577,Ţūkh,52593,30.35487,31.20105
24578,24578,Sharm el-Sheikh,38478,27.91582,34.32995
24579,24579,Rosetta,125778,31.39951,30.41718
24580,24580,Minyā al Qamḩ,99284,30.51552,31.34629
24581,24581,Kafr al Kurdī,44905,31.16844,31.7655
24582,24582,Fāyīd,35066,30.31263,32.30935
24583,24583,Az Zaynīyah Qiblī,20000,25.75089,32.6776
24584,24584,El-Tor,38285,28.24168,33.6222
24585,24585,Aş Şaff,61531,29.56472,31.28111
24586,24586,Al-Khārijah,83108,25.25,30.55
24588,24588,Asmara,563930,15.33805,38.93184
24690,24690,Melong,76716,5.12181,9.96143
24691,24691,Mbanga,44155,4.5016,9.5671
24692,24692,Kumba,225046,4.6363,9.4469
24694,24694,Fundong,43509,6.25,10.26667
24695,24695,Fontem,42689,5.4685,9.8818
24696,24696,Bertoua,137993,4.57728,13.68459
24697,24697,Ambam,25052,2.38333,11.28333
24868,24868,Damba,12000,-6.67868,15.13128
24869,24869,Cuango-Luzamba,55000,-9.14583,18.04453
24870,24870,Luena,273675,-11.78333,19.91667
24871,24871,Catchiungo,26974,-12.56598,16.22589
24872,24872,Catumbela,95034,-12.43002,13.54677
25376,25376,Tindouf,45610,27.67111,-8.14743
25380,25380,Hassi Messaoud,44478,31.68041,6.07286
25382,25382,El Oued,186525,33.35608,6.86319
25399,25399,Talā,72536,30.6798,30.94364
25400,25400,Samannūd,87921,30.9616,31.24069
25401,25401,Rafaḩ,44215,31.28204,34.23869
25402,25402,Quwaysinā,65690,30.56482,31.15777
25403,25403,Qina,252883,26.16418,32.72671
25404,25404,Qahā,36225,30.28011,31.20531
25405,25405,Dikirnis,101082,31.08898,31.59478
25406,25406,Birkat as Sab‘,50924,30.62914,31.08235
25407,25407,Banī Mazār,115759,28.49456,30.80526
25408,25408,As Sallūm,16545,31.55371,25.15793
25409,25409,Al Qūşīyah,99598,27.44023,30.81712
25410,25410,Abnūb,111785,27.26881,31.15232
25411,25411,Ar Riyāḑ,24254,31.24193,30.94504
25412,25412,Badr,28091,30.575,30.71111
25413,25413,Al Qāhirah al Jadīdah,313139,30.04214,31.44446
25414,25414,An-Najaylah,19768,31.4071,26.5832
25789,25789,Sabou,15060,12.06667,-2.23333
25791,25791,Bittou,31210,11.25806,-0.30611
25796,25796,Ségbana,26440,10.92821,3.69429
25797,25797,Bohicon,93744,7.17826,2.0667
25923,25923,Mbuji-Mayi,2101332,-6.13603,23.58979
25924,25924,Lukula,46534,-3.86881,23.88348
25925,25925,Lodja,91409,-3.52105,23.6005
25926,25926,Boende,50794,-0.28163,20.88053
25927,25927,Aru,45516,2.86218,30.84138
25928,25928,Kasongo-Lunda,20060,-6.47833,16.81735
26003,26003,Oupoyo,23834,5.56054,-6.58997
26006,26006,Ndouci,35145,5.86383,-4.7609
26007,26007,Monoko Zohi Deux,13112,7.06992,-6.84476
26018,26018,Luéhouan,14811,6.29916,-6.77104
26031,26031,Nkongsamba,162309,4.9547,9.9404
26032,26032,Kousséri,139024,12.07689,15.03063
26033,26033,Guidiguis,24554,10.13366,14.70748
26034,26034,Bazou,13058,5.06001,10.46751
26035,26035,Blangwa,27208,12.77515,14.55328
26153,26153,Jacqueville,14383,5.20515,-4.4146
26166,26166,Diégonéfla,43456,6.28919,-5.57413
26175,26175,Biankouma,23232,7.73909,-7.61377
26177,26177,Bécédi-Brignan,20284,5.90909,-4.01281
26181,26181,Arrah,37432,6.67342,-3.96938
26184,26184,Aniassué,12088,6.65368,-3.68103
26185,26185,Abongoua,10854,6.24709,-3.54335
26186,26186,Pinhou,12149,6.92125,-7.75791
26191,26191,Zéaglo,15873,6.56297,-7.8172
26193,26193,Gligbeuadji,32380,5.2,-6.7
26195,26195,Gnititoigui,10126,5.34392,-6.48204
26351,26351,At Tall,55561,33.61033,36.3107
26356,26356,Koumra,54109,8.91587,17.55046
26357,26357,Bébédja,40289,8.6761,16.566
26358,26358,Mango,37748,10.35917,0.47083
26465,26465,Kisarawe,12507,-6.9,39.06667
26466,26466,Basotu,20937,-4.36667,35.08333
26536,26536,Nyachera,30509,-0.9,30.41667
26537,26537,Kitgum,56891,3.27833,32.88667
26948,26948,Nablus,130326,32.22111,35.25444
26953,26953,Bayt Ūmmar,12238,31.62329,35.10446
26957,26957,Jericho,19783,31.86667,35.45
27381,27381,Şafwá,45876,26.6497,49.95522
27382,27382,Al Mithnab,60870,25.86012,44.22228
27384,27384,Al Hasaheisa,28735,14.75264,33.29836
27508,27508,Ramu,35644,3.93147,41.22295
27509,27509,Oyugis,19947,-0.50974,34.73067
27510,27510,Nyamira,24483,-0.56333,34.93583
27511,27511,Kisii,112417,-0.68174,34.76666
27512,27512,Kitengela,154436,-1.47612,36.96144
27513,27513,Maai Mahiu,20823,-0.98855,36.58537
27561,27561,Thaba-Tseka,16765,-29.52204,28.6084
27576,27576,Al Aşābi‘ah,27713,32.03333,12.86667
27581,27581,Ifrane,73782,33.52666,-5.11019
27583,27583,Kelaat Mgouna,14190,31.24573,-6.1326
27589,27589,Toamasina,345107,-18.1492,49.40234
27590,27590,Besalampy,12000,-16.75,44.48333
27591,27591,Antsiranana,136959,-12.31732,49.29188
27594,27594,Ambohimahasoa,12291,-21.11667,47.21667
27595,27595,Ambilobe,66029,-13.2,49.05
27596,27596,Ambarakaraka,16114,-13.5,48.86667
27604,27604,Kolondiéba,10041,11.08943,-6.8929
27605,27605,Bougouni,35450,11.41769,-7.48323
27629,27629,Nkhotakota,24865,-12.92744,34.29614
27630,27630,Mchinji,18305,-13.79841,32.88019
27899,27899,Chibuto,59165,-24.68667,33.53056
27901,27901,Tanout,15204,14.97089,8.88786
27902,27902,Say,10387,13.1007,2.3689
27903,27903,Maïné Soroa,10699,13.21139,12.0241
27904,27904,Diffa,27948,13.31536,12.61135
27905,27905,Agadez,124324,16.97333,7.99111
27908,27908,Panyam,10715,9.40756,9.21481
27909,27909,Ozubulu,73812,5.95753,6.85305
27910,27910,Oke Ila,35000,7.95,4.98333
27912,27912,Minna,291905,9.61524,6.54776
27913,27913,Mallammaduri,11156,12.56427,9.95727
27916,27916,Jibia,14424,13.09378,7.22624
27917,27917,Jebba,21488,9.11972,4.8236
28541,28541,Aţ Ţayyibah,12615,32.54304,35.71756
28622,28622,Ad Dīwānīyah,318801,31.99289,44.92552
28629,28629,Kermanshah,621100,34.31417,47.065
28634,28634,Asadābād,59617,34.78241,48.12012
28944,28944,Dar Chioukh,26605,34.89638,3.48543
28949,28949,Aoulef,24812,26.96667,1.08333
28961,28961,Ţimā,101130,26.90843,31.43469
28962,28962,Sumusţā as Sulţānī,37260,28.91667,30.85
28963,28963,Sumusţā al Waqf,64965,28.92095,30.85367
28964,28964,Sohag,266944,26.55695,31.69478
28965,28965,Kawm Ḩamādah,55652,30.76128,30.69972
28966,28966,Safaga,53639,26.74906,33.93891
28967,28967,Balţīm,51280,31.55582,31.08918
28968,28968,As Sāḩil,54094,27.06309,31.34425
28969,28969,Armant,78695,25.61988,32.54305
28970,28970,Al Waqf,34723,26.08657,32.42265
29204,29204,Hosa’ina,188200,7.54978,37.85374
29205,29205,Genet,48300,9.06667,38.5
29206,29206,‘Alem T’ēna,23700,8.3,38.95
29207,29207,Ādīs Zemen,36300,12.11667,37.78333
29208,29208,Ābīy Ādī,34200,13.56083,38.97389
29210,29210,Gutin,28300,9.56561,36.63569
29551,29551,Qiryat Shmona,22512,33.20733,35.57212
29553,29553,Naẕerat ‘Illit,43556,32.70816,35.32469
29557,29557,El Fureidīs,13247,32.59812,34.95153
29560,29560,Ashkelon,144073,31.66926,34.57149
29561,29561,Arad,27967,31.25882,35.21282
29645,29645,Mouila,43342,-1.86846,11.05594
29808,29808,Sekondi-Takoradi,138872,4.92678,-1.75773
29809,29809,Damongo,23544,9.08296,-1.81884
29810,29810,Akatsi,31981,6.1316,0.79853
30252,30252,Ouargaye,13431,11.50202,0.05886
30253,30253,Barogo,26539,12.55,-0.96667
30264,30264,Savalou,38162,7.92807,1.97558
30265,30265,Kandi,56043,11.13417,2.93861
30337,30337,Tlokweng,55508,-24.66861,25.97111
30394,30394,Butembo,286242,0.14164,29.29117
30395,30395,Bukama,105530,-9.20443,25.85475
30396,30396,Zemio,17829,5.03144,25.13614
30397,30397,Alindao,32588,5.02667,21.20876
30398,30398,Nola,31923,3.52494,16.04583
30399,30399,Bozoum,20665,6.31933,16.37992
30401,30401,Makoua,20550,0.00694,15.63333
30402,30402,Djambala,15372,-2.54472,14.75333
30454,30454,Zagné,63341,6.21016,-7.48284
30456,30456,Yabayo,26037,5.93876,-6.59826
30493,30493,Konéfla,30217,6.65166,-5.60501
30529,30529,Xangongo,35000,-16.7444,14.97494
30530,30530,Ganda,65000,-13.01592,14.63502
30531,30531,Catabola,28831,-12.15,17.28333
30923,30923,Hiré,41430,6.18878,-5.29463
30948,30948,Bongouanou,36379,6.65175,-4.20406
30959,30959,Ayamé,11149,5.6052,-3.15709
30966,30966,Adzopé,76122,6.10694,-3.86194
30969,30969,Belleville,23595,6.18021,-6.90529
30974,30974,Adjaméné,13638,4.76645,-6.84326
30996,30996,Gourané,10029,7.61198,-7.2986
31296,31296,‘Amrān,90792,15.6594,43.94385
31305,31305,Ventersburg,11260,-28.08561,27.13814
31307,31307,Pinetown,144026,-29.82068,30.88674
31309,31309,Kokstad,25373,-30.54723,29.42412
31310,31310,Johannesburg,5635127,-26.20227,28.04363
31312,31312,Fort Beaufort,58419,-32.77477,26.63376
31313,31313,eSikhaleni,49265,-28.87097,31.89961
31314,31314,East London,478676,-33.01529,27.91162
31315,31315,Delmas,92046,-26.1466,28.68322
31318,31318,Carletonville,182304,-26.36094,27.39767
31319,31319,Saldanha,68284,-33.01167,17.9442
31756,31756,Ya‘bad,13477,32.44566,35.16822
31763,31763,Ḩalḩūl,21076,31.58029,35.10178
31766,31766,Bayt Jālā,16183,31.71545,35.18788
31962,31962,Sagurē,24900,7.75,39.15
31963,31963,Mer’āwī,42200,11.41667,37.16667
31964,31964,Mehal Mēda,24900,10.3121,39.65888
31965,31965,Hartīshēk,22000,9.15722,43.35417
31966,31966,Harar,157000,9.31387,42.11815
31967,31967,Gurbetē,26500,11.35599,36.95449
31968,31968,Komtikas,29400,6.95766,35.55746
31969,31969,Gīdolē,35500,5.65,37.36667
31970,31970,Dembī Dolo,61100,8.53333,34.8
31971,31971,Debre Birhan,146900,9.67954,39.53262
31972,31972,Bichena,36500,10.45,38.2
31973,31973,Adwa,85600,14.16347,38.89924
32363,32363,Maputo,1191613,-25.96553,32.58322
32366,32366,Ubiaja,21782,6.65581,6.38494
32370,32370,Obiaruku,11936,5.84672,6.1529
32372,32372,Nguru,111014,12.87695,10.45536
32373,32373,Malumfashi,70709,11.78935,7.62061
32376,32376,Kuje,97367,8.87952,7.22756
32377,32377,Kisi,155510,9.08297,3.85196
32385,32385,Burumburum,11689,11.39106,8.72341
32388,32388,Badagry,26383,6.41502,2.88132
32389,32389,Babana,17617,10.42949,3.81495
32391,32391,Ajaokuta,15144,7.56229,6.65497
33191,33191,Wādī as Sīr,181212,31.9545,35.81831
33196,33196,As Salţ,107874,32.03917,35.72722
33197,33197,Qīr Moāv,22581,31.18248,35.69999
33198,33198,Al Jubayhah,46834,32.01071,35.89802
33266,33266,Sakakah,128332,29.96974,40.20641
33268,33268,Az Zulfī,125000,26.29945,44.81542
33269,33269,Al Jubayl,237274,27.0174,49.62251
33271,33271,Wagar,11950,16.1525,36.2032
33272,33272,Singa,250000,13.1483,33.93117
33273,33273,Al Mijlad,19997,11.03333,27.73333
33517,33517,Obock,15429,11.96693,43.28835
33544,33544,Oumache,10424,34.69292,5.68092
33547,33547,Feidh el Botma,26857,34.5,3.76667
33565,33565,Shibīn al Qanāţir,73711,30.31269,31.32018
33566,33566,Munūf,125707,30.46597,30.93199
33567,33567,Kafr ad Dawwār,128539,31.13379,30.12969
33568,33568,Idkū,177152,31.3073,30.2981
33569,33569,Ḩawsh ‘Īsá,82999,30.9128,30.29019
33570,33570,Banhā,182254,30.45977,31.1842
33571,33571,Al Minshāh,91149,26.4775,31.80394
33572,33572,Akhmīm,151430,26.5622,31.74566
33845,33845,Ramat HaSharon,47245,32.14613,34.8394
33846,33846,Nesher,24148,32.76622,35.04425
33849,33849,Majd el Kurūm,15455,32.92186,35.25568
33853,33853,Be’er Ya‘aqov,27768,31.93864,34.83749
33857,33857,Ariel,20540,32.1065,35.18449
33858,33858,H̱ura,21558,31.30084,34.93606
34113,34113,Koforidua,151255,6.09408,-0.25913
34119,34119,Mandiana,19110,10.62577,-8.69413
34346,34346,Tikrīt,42477,34.61581,43.67861
34347,34347,Ḩadīthah,30925,34.13661,42.37727
34360,34360,Aznā,47482,33.6095,48.9307
34441,34441,Tita,16450,11.92092,-2.51536
34442,34442,Ouahigouya,124587,13.58278,-2.42158
34443,34443,Mogtédo,25699,12.28444,-0.83722
34444,34444,Kongoussi,53627,13.32583,-1.53472
34445,34445,Kaya,121970,13.09167,-1.08444
34447,34447,Gomboussougou,15336,11.42611,-0.77278
34448,34448,Bogandé,21443,12.9704,-0.14953
34450,34450,Namponkoré,16423,11.73748,1.77718
34462,34462,Lokossa,47246,6.63869,1.71674
34463,34463,Gogounou,14248,10.8399,2.83174
34557,34557,Maun,85350,-19.98333,23.41667
34559,34559,Tutume,18582,-20.4943,27.03479
34618,34618,Kayna,51103,-0.60927,29.17249
34619,34619,Isiro,255409,2.77391,27.61603
34620,34620,Bukavu,816811,-2.49077,28.84281
34621,34621,Binga,96790,2.37351,20.49769
34622,34622,Kinshasa,16000000,-4.32758,15.31357
34623,34623,Bossembélé,17203,5.26667,17.65
34624,34624,Makabana,13401,-3.46333,12.60556
34680,34680,Zouan,12873,6.54502,-7.59902
34682,34682,Zéga,10404,6.50061,-6.42126
34685,34685,Yamoussoukro,275686,6.82055,-5.27674
34686,34686,Yakassé-Attobrou,14907,6.18174,-3.65111
34690,34690,Toumodi,55986,6.55799,-5.01769
34716,34716,Niablé,20422,6.66129,-3.26984
34730,34730,Oku,44443,6.25,10.43333
34732,34732,Abong Mbang,24433,3.98333,13.18333
34959,34959,N'dalatando,161584,-9.29782,14.91162
34960,34960,Luanda,2776168,-8.83682,13.23432
34961,34961,Ebo,10000,-11.05,14.71667
34962,34962,Cubal,90367,-13.03865,14.2455
34963,34963,Chongoroi,12000,-13.57418,13.94062
35373,35373,Guibéroua,23371,6.23869,-6.17147
35377,35377,Gadouan,16620,6.65623,-6.16609
35378,35378,Gnouboyo,12611,5.878,-6.40086
35397,35397,Bangolo,21861,7.01232,-7.48639
35399,35399,Bacon,13066,6.35602,-3.91017
35403,35403,Amélékia,11192,6.83036,-3.57522
35415,35415,Gabiadji,22619,5.0234,-6.56157
35804,35804,Sawa Sawa,12975,-4.47166,39.48463
35865,35865,Gbarnga,86031,6.99543,-9.47122
35883,35883,Darnah,102581,32.76704,22.63669
35885,35885,As Sawānī,57069,32.71667,13.06667
35886,35886,Msalātah,73907,32.58345,14.03627
35889,35889,Taourirt,82518,34.40731,-2.89732
35891,35891,Oujda-Angad,405253,34.68139,-1.90858
35894,35894,Guercif,57544,34.22568,-3.35361
35895,35895,Al Fqih Ben Çalah,84072,32.50213,-6.68771
35904,35904,Vohipaho,27000,-23.55,47.5
35906,35906,Maintirano,23609,-18.06354,44.02951
35908,35908,Amparafaravola,35266,-17.5876,48.22391
35909,35909,Ambatondrazaka,50463,-17.83333,48.41667
35910,35910,Ambalavao,45784,-21.83333,46.93333
36142,36142,Ceeldheer,26562,3.84878,47.18064
36143,36143,Saaxo,26000,6.77287,46.79689
36145,36145,Yei,260720,4.09444,30.67639
36158,36158,Al Quşayr,41062,34.5078,36.58029
36159,36159,Al Qunayţirah,36143,33.12595,35.82461
36165,36165,Badou,24000,7.58333,0.6
36209,36209,Ben Gardane,13364,33.13783,11.21965
36274,36274,Somanda,33932,-3.36667,33.95
36275,36275,Ndago,13012,-4.6,34.35
36276,36276,Masoko,12720,-9.33333,33.75
36278,36278,Kingori,22839,-3.28333,36.98333
36279,36279,Itumba,13438,-9.4,33.18333
36280,36280,Ipinda,17775,-9.48333,33.9
36281,36281,Galappo,18528,-4.26667,35.85
36283,36283,Nachingwea,18058,-10.3725,38.76251
36375,36375,Moyo,18800,3.66088,31.72474
36376,36376,Kumi,11400,1.46083,33.93611
36680,36680,Secunda,20418,-26.55,29.16667
36682,36682,Edenvale,49292,-26.14095,28.15247
36683,36683,Daniëlskuil,10123,-28.18873,23.53951
36684,36684,Boksburg,445168,-26.21197,28.25958
36685,36685,Bethal,60779,-26.45794,29.46553
36686,36686,Grabouw,30337,-34.15152,19.01509
37187,37187,Oyem,72939,1.5995,11.57933
37373,37373,Bawku,76459,11.0616,-0.24169
37374,37374,Mandela,77371,5.55221,-0.33912
37384,37384,Kankan,221428,10.38542,-9.30568
37595,37595,Rosh Ha‘Ayin,72881,32.09556,34.95664
37596,37596,Migdal Ha‘Emeq,25675,32.67597,35.23986
37600,37600,Eṭ Ṭīra,26552,32.2341,34.95023
37720,37720,Reguiba,25210,33.56391,6.70326
37723,37723,Ouled Djellal,58481,34.43,5.06139
37728,37728,Brezina,19084,33.09892,1.26082
37740,37740,Şān al Ḩajar al Qiblīyah,30969,30.97478,31.87231
37741,37741,Kom Ombo,116293,24.47669,32.94626
37742,37742,Ash Shuhadā’,76071,30.59683,30.89931
37743,37743,Al Quşayr,24653,26.10611,34.27716
37744,37744,Al Qaşşāşīn,24364,30.56412,31.93386
37745,37745,Al Ḩāmūl,58430,31.31146,31.14766
37746,37746,Abū Tīj,105418,27.04514,31.31845
37747,37747,An Nūbārīyah,23282,30.6687,30.07391
37970,37970,Nejo,39400,9.5,35.5
37971,37971,Mot’a,59000,11.08333,37.86667
37972,37972,El Bahay,23000,6.34656,45.47811
37973,37973,Fichē,57100,9.8,38.73333
37974,37974,Dembech’a,29800,10.55,37.48333
37975,37975,Dayē,31000,9.88333,38.26667
37976,37976,Burē,46000,10.7,37.06667
37977,37977,Kahandhale,18000,5.75279,45.64603
37978,37978,Chagni,52300,10.95627,36.50456
37979,37979,Guder,30600,8.97054,37.76117
38132,38132,Lolodorf,22252,3.23333,10.73333
38133,38133,Garoua Boulaï,46615,5.88333,14.55
38393,38393,Tougan,26347,13.0725,-3.0694
38394,38394,Pô,28079,11.16972,-1.145
38396,38396,Bobo-Dioulasso,904920,11.17715,-4.2979
38397,38397,Banfora,117452,10.63333,-4.76667
38407,38407,Toviklin,21617,6.88935,1.83722
38487,38487,Lobatse,29772,-25.22435,25.67728
38529,38529,Miabi,79929,-6.22149,23.39254
38530,38530,Kongolo,86932,-5.38532,27.00029
38531,38531,Kisangani,1181788,0.51528,25.19099
38532,38532,Kalemie,160961,-5.94749,29.19471
38533,38533,Bumba,154586,2.18771,22.46827
38535,38535,Malemba,44027,-10.37812,24.54516
38536,38536,Mbanza-Ngungu,142773,-5.25837,14.85838
38537,38537,Bulungu,81393,-4.54437,18.60364
38539,38539,Obo,14402,5.39586,26.49211
38541,38541,Mbrés,10269,6.668,19.80323
38545,38545,Boundji,10224,-1.02605,15.35914
38546,38546,Mindouli,20985,3.10278,18.51111
38597,38597,Téiri,12086,6.3981,-5.9846
38617,38617,Niellé,24780,10.19814,-5.62337
38618,38618,Niakaramandougou,21793,8.65759,-5.29109
38726,38726,Issia,68263,6.49224,-6.58558
38730,38730,Grabo,11640,4.92035,-7.49562
38759,38759,Bonaouin,11114,6.56474,-3.76066
38765,38765,Gbapleu,28802,6.47983,-7.16528
38774,38774,Agboville,81770,5.92801,-4.21319
38782,38782,Adahidoukou,11823,5.31083,-5.2246
38785,38785,Kouassi-Kouassikro,10102,7.34141,-4.67709
38796,38796,Saph,10471,5.13289,-6.72693
38800,38800,Touagui,16684,5.43102,-6.55946
38843,38843,Lakota,32376,5.84752,-5.682
38885,38885,Sanza Pombo,23000,-7.31473,16.0024
38886,38886,Dondo,64643,-9.05,15.31667
38887,38887,Cangandala,16232,-9.78333,16.43333
38888,38888,Balombo,36361,-12.35426,14.77232
38889,38889,Baía Farta,45000,-12.60417,13.19667
39216,39216,Masalani,43642,-1.69746,40.12186
39218,39218,Kinoi,44086,-1.6558,37.37454
39219,39219,Kihancha,22194,-1.19347,34.61967
39220,39220,Mlolongo,136351,-1.39639,36.94028
39267,39267,Tripoli,229398,34.43352,35.84415
39272,39272,Voinjama,23051,8.42194,-9.74778
39276,39276,Roma,14259,-29.44667,27.70806
39277,39277,Quthing,33910,-30.40001,27.70027
39293,39293,Tobruk,141499,32.08963,23.95385
39294,39294,Al Ajaylat,130546,32.75718,12.37633
39295,39295,Al Māyah,14203,32.80194,12.87917
39296,39296,Al Jadīd,126386,27.05,14.4
39299,39299,El Hajeb,28126,33.68786,-5.371
39307,39307,Sitampiky,21000,-16.66667,46.1
39309,39309,Mahabe,10000,-17.08333,45.33333
39310,39310,Fenoarivo Be,19605,-18.43333,46.56667
39311,39311,Betioky,27125,-23.72065,44.38069
39312,39312,Betafo,36364,-19.83333,46.85
39313,39313,Anjozorobe,25541,-18.4,47.86667
39349,39349,Ntcheu,10445,-14.82027,34.63586
39788,39788,Bayt Lāhyā,56919,31.5464,34.49514
40219,40219,Kukawa,16077,12.92475,13.56617
40221,40221,Isanlu-Itedoijowa,15087,8.27338,5.83526
40222,40222,Inisa,164161,7.84855,4.32981
40223,40223,Ilaro,46999,6.88901,3.01416
40225,40225,Igboho,136764,8.83784,3.75628
40226,40226,Igarra,14647,7.29366,6.10432
40229,40229,Gwarzo,16303,11.91597,7.9337
40232,40232,Efon-Alaaye,279319,7.65649,4.92235
40233,40233,Dukku,16961,10.82379,10.77221
40234,40234,Dekina,11067,7.68967,7.0438
40237,40237,Bori,11693,4.67629,7.36519
40474,40474,Lichinga,213361,-13.31278,35.24056
40475,40475,Oshakati,33618,-17.78833,15.70436
40477,40477,Keetmanshoop,15608,-26.57654,18.13359
40479,40479,Dakoro,19798,14.51056,6.765
40482,40482,Uyo,436606,5.05127,7.9335
40547,40547,Ţūz Khūrmātū,59886,34.88808,44.63256
40553,40553,Baqubah,152550,33.75403,44.60518
40554,40554,Kufa,110000,32.05114,44.44017
40555,40555,Al Hārithah,92395,30.58481,47.76114
40558,40558,Rāmshīr,19454,30.89315,49.40787
41046,41046,Upington,71373,-28.44776,21.25612
41047,41047,Ulundi,20753,-28.33523,31.41617
41049,41049,Pampierstad,21707,-27.78324,24.68768
41050,41050,Lebowakgomo,33308,-24.2,29.5
41058,41058,Malmesbury,34991,-33.4608,18.72714
41059,41059,Siavonga,18638,-16.53818,28.70876
41060,41060,Chinsali,14015,-10.54142,32.08162
41061,41061,Chingola,148564,-12.52897,27.88382
41513,41513,Fort Portal,42670,0.66174,30.2748
41617,41617,Gebiley,77320,9.70028,43.62444
41631,41631,Dūmā,111864,33.57175,36.4027
41637,41637,Umm Hājar,37941,13.2954,19.6966
41638,41638,Mongo,53768,12.18514,18.6884
41640,41640,Sokodé,117811,8.98333,1.13333
41683,41683,Sfax,277278,34.74056,10.76028
41684,41684,Gafsa,81232,34.425,8.78417
41855,41855,Songwa,23618,-3.51667,33.51667
41856,41856,Mvomero,31324,-6.25,38.66667
41857,41857,Muleba,11555,-1.83972,31.65444
41858,41858,Malya,12627,-2.98333,33.51667
41859,41859,Makungu,10291,-8.73333,35.28333
41860,41860,Kibara,17211,-2.15,33.45
41861,41861,Itigi,19711,-5.7,34.48333
41862,41862,Dar es Salaam,5383728,-6.82349,39.26951
41863,41863,Mtwara,140793,-10.26667,40.18333
41889,41889,Nzega,33832,-2.479,29.5564
41890,41890,Umluj,33874,25.02126,37.2685
41891,41891,Duba,22000,27.35134,35.69014
41892,41892,Al Jumūm,22207,21.61951,39.69659
41894,41894,Dongola,13473,19.18163,30.47689
41895,41895,Ar Ruseris,28862,11.8659,34.3869
42265,42265,Fara Department,20434,11.52941,-2.76797
42279,42279,Ngozi,61716,-2.9075,29.8306
42280,42280,Tanguiéta,27094,10.62118,1.26651
42281,42281,Hévié,13450,6.41667,2.25
42361,42361,Letlhakane,36404,-21.41494,25.59263
42425,42425,Kasongo,81629,-4.42741,26.66656
42426,42426,Kanyama,80043,-7.51668,24.17404
42427,42427,Bosobolo,14553,4.1898,19.8833
42428,42428,Bangui,812407,4.36122,18.55496
42429,42429,Loudima,20391,-4.11616,13.06755
42430,42430,Bétou,16221,3.055,18.51722
42494,42494,Songan,12947,6.10929,-3.20843
42502,42502,Para,22807,5.51956,-7.32755
42514,42514,Logoualé,16106,7.10769,-7.55207
42571,42571,Maquela do Zombo,42000,-6.05716,15.10971
42572,42572,Golungo Alto,19992,-9.13333,14.76667
42573,42573,Barra do Dande,75000,-8.47175,13.37011
42574,42574,Cuchi,15000,-14.64978,16.89929
42575,42575,Conda,21260,-11.10862,14.33621
42576,42576,Chibia,10000,-15.18315,13.69909
42880,42880,Grand-Bassam,96797,5.2118,-3.73884
42890,42890,Douagué,12022,7.47944,-7.13336
42899,42899,Botro,13375,7.85249,-5.31063
42911,42911,Agnibilékrou,63015,7.13113,-3.20415
42914,42914,Konédougou,13354,6.03991,-6.66579
42920,42920,Galébré,21245,6.0059,-6.29403
42926,42926,Blahou,10019,4.93107,-6.55781
42930,42930,Bamo,13206,5.80501,-5.96597
43257,43257,Tadjoura,19533,11.78778,42.88222
43295,43295,Bir el Ater,70749,34.74488,8.06024
43313,43313,Mūţ,26820,25.48742,28.97918
43314,43314,Madīnat as Sādāt,71501,30.36742,30.50871
43315,43315,Kafr az Zayyāt,83348,30.8248,30.81805
43316,43316,Iţsā,74357,29.2376,30.78944
43317,43317,Basyūn,75084,30.93976,30.81338
43318,43318,Luxor,422407,25.69893,32.6421
43319,43319,Minya,283605,28.09193,30.75813
43320,43320,Keren,74800,15.77792,38.45107
43322,43322,Adi Keyh,13061,14.84444,39.37722
43513,43513,Tīlīlī,20400,10.85,37.01667
43514,43514,Shakiso,47500,5.76494,38.91006
43516,43516,Funyan Bīra,25000,9.4025,42.3175
43517,43517,Dire Dawa,343000,9.59306,41.86611
43518,43518,Dessie,270400,11.13333,39.63333
43519,43519,Debark’,46800,13.15611,37.89806
43520,43520,Sifra,22400,11.60462,40.01662
43521,43521,Babīlē,36700,9.22556,42.33222
43522,43522,Ārabī,148933,9.96278,42.49278
43523,43523,Abala,25300,14.23333,37.0
43582,43582,Yokadouma,32900,3.51667,15.05
43583,43583,Kaélé,32853,10.10917,14.45083
43584,43584,Eséka,27928,3.65,10.76667
43586,43586,Ngaoundal,40328,6.5,13.26667
44159,44159,Makutano,28469,1.25881,35.09569
44160,44160,Magadi,14529,-1.90122,36.287
44161,44161,Limuru,159314,-1.1136,36.64205
44162,44162,Kerugoya,30045,-0.49887,37.28031
44163,44163,Kericho,53804,-0.36774,35.28314
44164,44164,Juja,156041,-1.18285,37.11081
44212,44212,Sanniquellie,17895,7.36215,-8.71326
44213,44213,Ganta,13802,7.30222,-8.53083
44214,44214,Butha-Buthe,40599,-28.76659,28.24937
44225,44225,Sūknah,12077,29.06941,15.78266
44226,44226,Qaşr al Qarabūllī,49610,32.74506,13.71467
44227,44227,Ghat,14630,24.96334,10.18003
44228,44228,Zaïo,30008,34.94282,-2.7329
44233,44233,Jerada,43696,34.31,-2.16
44243,44243,Vavatenina,37861,-17.46667,49.2
44244,44244,Sahavato,28000,-20.6,48.33333
44245,44245,Ankazobe,28430,-18.31667,47.11667
44280,44280,Nkhata Bay,11721,-11.60659,34.29073
44282,44282,Mulanje,16483,-16.03163,35.5
44771,44771,Irbid,569068,32.55556,35.85
44811,44811,Koulamoutou,30830,-1.13667,12.46399
45002,45002,Konongo,43585,6.61667,-1.21667
45004,45004,Siguiri,148018,11.42282,-9.16852
45207,45207,Yirkā,17171,32.95435,35.21197
45208,45208,Nazareth,77445,32.70056,35.29722
45212,45212,Givatayim,60644,32.07225,34.81253
45341,45341,Rāwah,13000,34.48229,41.91898
45345,45345,Ad Dujayl,26362,33.84667,44.23444
45353,45353,Omīdīyeh,46983,30.76277,49.70226
45538,45538,Mutuáli,30523,-14.87056,37.00444
45539,45539,Tsumeb,12190,-19.23333,17.71667
45540,45540,Omaruru,11547,-21.43333,15.93333
45543,45543,Tillabéri,19262,14.20711,1.45418
45544,45544,Nguigmi,17897,14.24953,13.10921
45545,45545,Matamey,16844,13.42309,8.47485
45546,45546,Yelwa,13234,8.83333,9.63333
45548,45548,Wukari,92933,7.87139,9.77786
45549,45549,Wawa,10200,9.90347,4.40816
45551,45551,Patigi,28285,8.72851,5.75561
45552,45552,Orita-Eruwa,71027,7.55632,3.44107
45557,45557,Ogaminana,84373,7.59383,6.21798
45560,45560,Makurdi,292645,7.73375,8.52139
45561,45561,Langtang,13172,9.14164,9.79101
45564,45564,Kangiwa,11701,12.55339,3.81814
45565,45565,Jega,73495,12.22336,4.37971
45566,45566,Ijebu-Jesa,51730,7.68287,4.81769
45567,45567,Igbara-Odo,74121,7.50251,5.06258
45569,45569,Goronyo,10460,13.44226,5.67234
45571,45571,Gembu,19881,6.72556,11.25652
45575,45575,Dindima,13356,10.22629,10.15132
45578,45578,Anka,11641,12.11347,5.92681
45582,45582,Degema Hulk,19223,4.76145,6.74957
46009,46009,Diinsoor,20000,2.4085,42.9771
46010,46010,Borama,597842,9.93611,43.18278
46012,46012,Baki,20000,9.89206,43.38531
46013,46013,Beled Hawo,73000,3.9284,41.87997
46015,46015,Pajok,49000,3.86512,32.48212
46024,46024,Al Ḩirāk,23784,32.74948,36.30582
46026,46026,Fada,17240,17.19186,21.58081
46027,46027,Doba,70942,8.66389,16.85324
46028,46028,Bol,51389,13.46729,14.71352
46029,46029,Aného,47579,6.22798,1.5919
46083,46083,Metlaoui,38634,34.32081,8.40157
46102,46102,Ndungu,14545,-4.36667,38.05
46103,46103,Mtwango,19040,-9.01667,34.8
46104,46104,Maswa,22025,-2.68333,33.98333
46105,46105,Magomeni,19086,-6.8,39.25
46106,46106,Mabama,15320,-5.13333,32.53333
46107,46107,Lembeni,16008,-3.78333,37.61667
46108,46108,Inyonga,11790,-6.71667,32.06667
46109,46109,Geiro,37909,-6.15,36.86667
46110,46110,Kitama,16232,-10.71667,39.73333
46181,46181,Mbale,76493,1.08209,34.17503
46182,46182,Lira,119323,2.2499,32.89985
46184,46184,Kayunga,21704,0.7025,32.88861
46185,46185,Apac,67700,1.97556,32.53861
46466,46466,Uitenhage,228912,-33.75757,25.3971
46468,46468,Prieska,11236,-29.66803,22.74251
46469,46469,Postmasburg,30089,-28.33392,23.06541
46474,46474,Driefontein,28127,-27.0177,30.44979
46475,46475,Cullinan,25490,-25.67088,28.52364
46476,46476,Vredendal,14806,-31.66833,18.50119
46480,46480,Mansa,42277,-11.19976,28.89431
46482,46482,Shamva,10317,-17.31159,31.57561
46483,46483,Chinhoyi,90800,-17.36667,30.2
46485,46485,Beitbridge,58100,-22.21667,30.0
46654,46654,Kibuye,48024,-2.06028,29.34778
46656,46656,Tanūmah,13594,27.1,44.13333
46657,46657,Ar Rass,81728,25.86944,43.4973
46658,46658,Qurayyat,102903,31.33176,37.34282
46659,46659,Al Kharj,425300,24.15541,47.33457
46660,46660,Al Bukayrīyah,25153,26.13915,43.65782
46662,46662,Abha,210886,18.21639,42.50528
47074,47074,Gaza,410000,31.50161,34.46672
47742,47742,Nyamuswa,16507,-1.9,34.01667
47743,47743,Nguruka,39135,-5.10917,31.04194
47744,47744,Moshi,201150,-3.35,37.33333
47745,47745,Mhango,21553,-3.28333,32.85
47747,47747,Mabamba,14140,-3.59833,30.50194
47748,47748,Lupiro,11430,-8.38333,36.66667
47750,47750,Kibiti,30163,-7.72178,38.93749
47751,47751,Buseresere,52870,-3.04877,31.88542
47752,47752,Masasi,36032,-10.71667,38.8
47834,47834,Pader Palwo,11152,2.80056,33.135
47981,47981,Qandala,15923,11.47197,49.87282
47984,47984,Baardheere,42240,2.34464,42.27644
47986,47986,Kuacjok,78000,8.30278,27.98
47997,47997,Tadmur,51015,34.5624,38.28402
47998,47998,Jāsim,30283,32.99125,36.06093
48003,48003,Hajīn,29237,34.69508,40.83138
48006,48006,Ngama,13087,11.78729,17.15925
48195,48195,Rwamagana,47203,-1.9487,30.4347
48197,48197,Şāmitah,26945,16.59601,42.94435
48198,48198,Qal‘at Bīshah,81828,20.00054,42.6052
48201,48201,Zalingei,28687,12.90918,23.47058
48202,48202,Umm Ruwaba,55742,12.9061,31.2158
48203,48203,Doka,19821,13.51667,35.76667
48204,48204,Port Sudan,489725,19.61745,37.21644
48473,48473,Vryburg,49588,-26.95659,24.7284
48476,48476,Louis Trichardt,86854,-23.04385,29.90319
48477,48477,Kriel,15055,-26.27391,29.2253
48482,48482,Barkly West,11621,-28.53537,24.52151
48483,48483,Ekangala,37650,-25.69619,28.74918
48485,48485,Ndola,451246,-12.95867,28.63659
48486,48486,Lundazi,11635,-12.29292,33.1782
48487,48487,Masvingo,90286,-20.06373,30.82766
48516,48516,Yaoundé,1299369,3.86667,11.51667
48519,48519,Mbouda,71867,5.62611,10.25421
48521,48521,Buea,140533,4.15342,9.24231
48522,48522,Bafoussam,373268,5.47775,10.41759
48748,48748,Limassol,154000,34.68406,33.03794
48851,48851,Nioko I,65263,12.39501,-1.43861
48852,48852,Koupéla,49372,12.17864,-0.35103
48853,48853,Gaoua,45284,10.33137,-3.18202
48854,48854,Mani,15066,13.25833,-0.21306
48945,48945,Thamaga,25300,-24.67014,25.53975
48947,48947,Tati Siding,12404,-21.27345,27.49002
49005,49005,Katanda,42105,-0.82535,29.36451
49006,49006,Bondo,17860,3.81461,23.68665
49007,49007,Zongo,48658,4.34283,18.59447
49070,49070,Siétinfla,10404,6.82764,-5.73008
49073,49073,Sankadiokro,12620,6.86165,-3.48564
49077,49077,Petitgoa I,16457,6.12024,-6.71253
49081,49081,Offumpo,10791,5.95186,-4.45667
49088,49088,M’Bahiakro,19307,7.45728,-4.33993
49097,49097,Kolia,15716,9.7651,-6.46372
49335,49335,Lumbala,19000,-14.10165,21.43531
49336,49336,Nzagi,60000,-8.38549,15.30126
49337,49337,Ambrizette,28840,-7.23116,12.8666
49338,49338,Quipungo,23014,-14.81909,14.53504
49339,49339,Menongue,251178,-14.6585,17.69099
49700,49700,Ananguié,12979,6.22299,-3.77333
49790,49790,Kombissiri,28617,12.06884,-1.33644
49791,49791,Fada N'gourma,73200,12.06157,0.35843
49801,49801,Gatumba,18104,-3.33333,29.25
49803,49803,Zé,16903,6.78333,2.3
49883,49883,Gabane,20027,-24.66667,25.78222
49940,49940,Mulongo,89340,-7.83486,26.99852
49941,49941,Fungurume,50100,-10.61771,26.32107
49942,49942,Kenge,63317,-5.76521,13.65711
49943,49943,Bolobo,47032,-2.158,16.23249
49944,49944,Bossangoa,55353,6.49263,17.45518
49945,49945,Boali,18090,4.80048,18.12747
49946,49946,Sibiti,33122,-3.68192,13.34985
49947,49947,Ngo,14606,-2.48722,15.75556
50001,50001,Zambakro,10301,6.73322,-5.41117
50002,50002,Zagoréta,12705,6.6756,-6.15347
50008,50008,Touba,28986,8.28333,-7.68333
50023,50023,Rubino,18180,6.07,-4.31056
50051,50051,Kouétinfla,10872,6.61223,-6.06037
50089,50089,Songo,31382,-7.35207,14.84629
50090,50090,Cazombo,34000,-8.73204,15.37124
50091,50091,Huambo,595304,-12.77611,15.73917
50093,50093,Cacolo,13498,-10.14503,19.26598
50094,50094,Andulo,50000,-11.48676,16.69663
50095,50095,Cambundi,17212,-7.46856,17.03769
50489,50489,Wenago,22800,6.31667,38.26667
50490,50490,Gimja Bēt Maryam,24800,10.85,36.88333
50491,50491,Gebre Guracha,41200,9.8,38.4
50492,50492,Deder,26900,9.31168,41.44301
50493,50493,Ādīs K’idamē,20100,11.08333,36.88333
50494,50494,Kobo,56100,10.02798,39.8528
50736,50736,Robbah,30446,33.27967,6.90984
50739,50739,Guerara,58572,32.79211,4.49949
50740,50740,Ghardaïa,142913,32.49094,3.67347
50753,50753,Timayy al Imdīd,20389,30.94384,31.52926
50754,50754,Ţalkhā,112851,31.0539,31.37787
50755,50755,Ash Shaykh Zuwayd,26713,31.2163,34.11074
50756,50756,Burj al ‘Arab,22444,30.90316,29.55276
50757,50757,Bilqās,137080,31.21452,31.35798
50758,50758,Banī ‘Ubayd,46060,27.95243,30.78082
50759,50759,Zagazig,430445,30.58768,31.502
50760,50760,At Tall al Kabīr,46962,30.54323,31.78504
50761,50761,As Sibā‘īyah,21610,25.19413,32.6771
50762,50762,Al Manzalah,127394,31.15823,31.936
50763,50763,Ad Dilinjāt,68901,30.82796,30.53552
50764,50764,Assab,21300,13.00917,42.73944
50895,50895,Makokou,24823,0.57381,12.86419
51065,51065,Techiman,84074,7.59054,-1.93947
51066,51066,Tarkwa,49937,5.30383,-1.98956
51067,51067,Tafo,50457,6.73156,-1.6137
51068,51068,Gbawe,86718,5.57692,-0.31038
51069,51069,Atebubu,32641,7.75537,-0.98085
51070,51070,Amanfrom,119467,5.53532,-0.39827
51525,51525,Surif City,25242,31.65078,35.06439
51526,51526,Salfīt,11000,32.08371,35.18079
51537,51537,Bayt Sāḩūr,14921,31.70095,35.22631
51539,51539,‘Aţārūt,25595,31.86667,35.21667
51541,51541,Hebron,160470,31.52935,35.0938
51542,51542,Givat Zeev,11764,31.86145,35.16861
51664,51664,Ogembo,20000,-0.80116,34.72579
51665,51665,Nyeri,80081,-0.42013,36.94759
51666,51666,Nyahururu,37650,0.03813,36.36339
51667,51667,Naivasha,198444,-0.71383,36.43261
51668,51668,Muhoroni,15217,-0.15816,35.19645
51669,51669,Kiminini,16560,0.89284,34.92468
51670,51670,El Wak,60732,2.80922,40.92885
51671,51671,Eldama Ravine,21385,0.05196,35.72734
51673,51673,Mtwapa,90677,-3.93938,39.74877
51686,51686,Tsimbeo,12590,-12.20583,44.46472
51705,51705,Al Finţās,23071,29.17389,48.12111
51718,51718,Bcharré,20000,34.25083,36.01056
51744,51744,Qaryat Sulūq,19918,31.66818,20.25205
51746,51746,Waddān,10150,29.1614,16.13904
51747,51747,Qaşr Bin Ghashīr,100069,32.68333,13.18333
51750,51750,Midar,10229,34.94025,-3.53311
51752,51752,Berkane,80721,34.92,-2.32
51760,51760,Miarinarivo,13883,-18.95873,46.90553
51762,51762,Fandriana,30958,-20.23333,47.38333
51763,51763,Antsirabe,260907,-19.86586,47.03333
51764,51764,Ambovombe,69265,-25.17838,46.08722
52130,52130,Dondo,78648,-19.60944,34.74306
52131,52131,Otjiwarongo,21224,-20.46369,16.64772
52133,52133,Alaghsas,88561,17.0187,8.0168
52139,52139,Ohafia-Ifigh,73355,5.61455,7.81191
52145,52145,Kujama,12967,10.45767,7.63808
52148,52148,Ipoti,82113,7.87377,5.07691
52151,52151,Ibi,22757,8.18122,9.74431
52153,52153,Gassol,14326,8.53535,10.44615
52154,52154,Gashua,125817,12.87398,11.04057
52155,52155,Enugu-Ezike,18989,6.9827,7.45534
52156,52156,Dutse,17129,11.75618,9.33896
52158,52158,Dakingari,12558,11.64809,4.06177
52159,52159,Bonny,16868,4.4516,7.17074
52160,52160,Sofo-Birnin-Gwari,22380,11.01537,6.78036
52161,52161,Beli,17467,7.85868,10.97187
52162,52162,Bebeji,10987,11.66768,8.262
52164,52164,Ahoada,12848,5.0828,6.64981
52883,52883,Tel Mond,13144,32.24995,34.91737
52884,52884,Tamra,25917,32.85301,35.1987
52885,52885,Ramat Gan,170822,32.08227,34.81065
52888,52888,Kfar Saba,110456,32.175,34.90694
52891,52891,Binyamina-Giv'at Ada,15847,32.51824,34.95398
53012,53012,Bayjī,36454,34.92915,43.48878
53013,53013,Al Mishkhāb,23189,31.80437,44.4893
53027,53027,Darreh Shahr,24961,33.14447,47.3799
53391,53391,Sulţānah,946697,24.49258,39.58572
53392,53392,Al Munayzilah,16296,25.38333,49.66667
53395,53395,Ad-Damazin,186051,11.7891,34.3592
53396,53396,Abū Zabad,15304,12.35,29.25
53856,53856,Beni Mester,19808,34.87045,-1.42319
53859,53859,’Aïn el Hadjar,12996,34.75846,0.14528
53871,53871,6th of October City,368650,29.81667,31.05
53872,53872,Bibā,94677,28.92406,30.98544
53873,53873,Awsīm,94174,30.12303,31.13571
53874,53874,Ismailia,429465,30.60427,32.27225
53875,53875,Hurghada,207132,27.25738,33.81291
53876,53876,Al Bawīţī,15653,28.34827,28.86936
53877,53877,Abū Ḩammād,43001,30.53766,31.67875
53878,53878,Abū al Maţāmīr,66946,30.91018,30.17438
53879,53879,El Gouna,15000,27.39417,33.67825
54231,54231,Kétésso,10711,5.87796,-3.17407
54238,54238,Brobo,10382,7.64026,-4.82541
54254,54254,Dagbao I,22056,5.56025,-6.02111
54260,54260,Bonoua,49434,5.27247,-3.59625
54267,54267,Béttié,10960,6.07568,-3.40846
54269,54269,Bèfla,12604,7.21185,-6.13989
54271,54271,Baoutifla,17712,7.23425,-6.47485
54278,54278,Anyama,133905,5.49462,-4.05183
54297,54297,Gagny,15910,5.0491,-6.74477
54352,54352,Dokpodon,14717,5.18955,-5.45087
54358,54358,Guézon-Tahouaké,11438,7.0761,-7.18719
54386,54386,Gaalkacyo,61200,6.76972,47.43083
54387,54387,Buurhakaba,27792,2.80257,44.07805
54392,54392,Şāfītā,27815,34.82099,36.11773
54393,54393,Qārah,20656,34.15558,36.74284
54395,54395,Kafr Lāhā,21819,34.89469,36.49582
54396,54396,Jayrūd,32352,33.80709,36.73861
54402,54402,Léré,32721,9.6447,14.2151
54403,54403,Bitkine,41871,11.9801,18.2138
54464,54464,Skhira,11944,34.2992,10.06999
54525,54525,Urambo,23724,-5.06667,32.05
54526,54526,Tumbi,32900,-5.06667,32.73333
54527,54527,Rulenge,22069,-2.7175,30.6325
54528,54528,Nyanguge,10746,-2.55,33.2
54529,54529,Naberera,13499,-4.2,36.93333
54530,54530,Mwanza,1104521,-2.51667,32.9
54531,54531,Mwandiga,16822,-4.83,29.65806
54533,54533,Katoro,49691,-2.99983,31.93261
54535,54535,Igugunu,22810,-4.56667,34.63333
54536,54536,Chimala,24817,-8.85637,34.02393
54537,54537,Ruangwa,11095,-10.06667,38.93333
54538,54538,Merelani,50000,-3.56182,36.97895
54614,54614,Moroto,10300,2.53453,34.66659
54616,54616,Kanungu,14600,-0.9575,29.78972
54918,54918,Mthatha,78663,-31.58893,28.78443
54920,54920,Howick,28725,-29.47795,30.23057
54921,54921,Greytown,13912,-29.06415,30.59279
54922,54922,Graaff-Reinet,62896,-32.25215,24.53075
54925,54925,Diepsloot,350000,-25.93312,28.01213
55030,55030,Tulu Bolo,30000,8.66667,38.21667
55031,55031,K’ola Diba,27300,12.42417,37.325
55032,55032,Idaga Hamus,25400,14.18722,39.56389
55033,55033,Harbu,24500,10.9202,39.78714
55034,55034,Felege Neway,61000,6.3,36.88333
55035,55035,Duramē,65900,7.23333,37.88333
55036,55036,Dodola,43200,6.98333,39.18333
55037,55037,Butajīra,89800,8.11667,38.36667
55038,55038,May Cadera,27300,14.07294,36.56828
55525,55525,Zarqa,792665,32.07275,36.08796
55723,55723,Modi‘in Makkabbim Re‘ut,93277,31.89385,35.01504
55728,55728,Maghār,22957,32.88984,35.40703
55731,55731,Kafr Qāsim,23823,32.11406,34.97624
55733,55733,Iksāl,14784,32.68164,35.32365
55736,55736,Acre,49380,32.92814,35.07647
56144,56144,Nāḩiyat al Fuhūd,21551,30.96972,46.72278
56159,56159,Ābdānān,19360,32.9926,47.4198
56162,56162,Pasragad Branch,787878,34.77772,48.47168
56203,56203,Yendi,64676,9.44272,-0.00991
56204,56204,Tamale,464316,9.40079,-0.8393
56205,56205,Bimbila,34262,8.85488,0.05922
56206,56206,Atsiaman,202932,5.69775,-0.32824
56207,56207,Adenta,50652,5.71417,-0.15418
56580,56580,‘Abasān al Kabīrah,18163,31.31913,34.34005
56585,56585,Baytūnyā,12822,31.8966,35.17048
56588,56588,Ar Rām wa Ḑāḩiyat al Barīd,24838,31.84945,35.2342
56800,56800,Tete,305722,-16.15639,33.58667
56804,56804,Talata Mafara,39045,12.56841,6.06225
56807,56807,Owerri,215038,5.48363,7.03325
56811,56811,Obonoma,68584,4.71131,6.79084
56814,56814,Kafin Hausa,12609,12.23933,9.91105
56815,56815,Iwo,250443,7.63527,4.18156
56817,56817,Isieke,89990,6.38186,8.03736
56818,56818,Ijebu-Igbo,109261,6.97198,3.99938
56821,56821,Etinan,10318,4.84262,7.85252
56824,56824,Bakori,12604,11.55559,7.42419
56826,56826,Asaba,73374,6.19824,6.73187
56827,56827,Akwanga,15985,8.91077,8.40655
57070,57070,Ruiru,490120,-1.14665,36.96087
57071,57071,Rongai,30471,-0.17344,35.86313
57072,57072,Njoro,42173,-0.33024,35.94445
57073,57073,Nakuru,570674,-0.30719,36.07225
57074,57074,Makueni Boma,20681,-1.80388,37.62405
57075,57075,Kwale,10063,-4.17375,39.45206
57076,57076,Kilifi,74270,-3.63045,39.84992
57077,57077,Kapenguria,56000,1.23889,35.11194
57078,57078,Kangundo,10094,-1.30342,37.34813
57079,57079,Bungoma,68031,0.5635,34.56055
57080,57080,Awendo,16815,-0.5,34.4
57092,57092,Moutsamoudou,26313,-12.16672,44.39944
57105,57105,Ash Shāmīyah,13762,29.34722,47.96167
57112,57112,Ghazieh,50000,33.5175,35.36889
57113,57113,Batroûn,10852,34.25528,35.65806
57134,57134,Şabrātah,83398,32.79335,12.48845
57137,57137,Tiflet,70010,33.89469,-6.30649
57139,57139,Rabat,1655753,34.01325,-6.83255
57151,57151,Mampikony,30282,-16.092,47.647
57152,57152,Ikalamavony,15601,-21.15,46.58333
57154,57154,Antsohimbondrona,32080,-13.08333,48.85
57166,57166,Koutiala,99353,12.39173,-5.46421
57197,57197,Blantyre,584877,-15.78499,35.00854
57657,57657,Saonré,47728,12.2751,-1.57692
57659,57659,Kokologo,25958,12.19392,-1.87687
57666,57666,Makamba,14539,-4.1348,29.804
57667,57667,Kouandé,27197,6.4,2.06667
57668,57668,Glazoué,20036,7.97252,2.22176
57669,57669,Adjarra,24132,6.53445,2.66833
57670,57670,Abomey,117824,7.18286,1.99119
57744,57744,Tshabong,11651,-26.05,22.45
57745,57745,Selebi-Phikwe,42488,-21.97895,27.84296
57746,57746,Mosopa,23858,-24.7718,25.42156
57752,57752,Ghanzi,19012,-21.69785,21.64581
57753,57753,Mmopone,25460,-24.56694,25.87417
57806,57806,Wamba,17373,2.14838,27.99466
57807,57807,Baudhuinville,81181,-7.08408,29.73681
57808,57808,Luputa,54676,-7.16177,23.70057
57809,57809,Lisala,117464,2.15127,21.51672
57810,57810,Mwene,295683,-9.81697,22.87023
57811,57811,Kituku,66378,-7.58157,30.20604
57812,57812,Grimari,14941,5.73948,20.05564
57813,57813,Sibut,31986,5.71801,19.07389
57814,57814,Bouca,19320,6.50734,18.2767
57815,57815,Boda,11688,4.31887,17.46953
57880,57880,Tortiya,20738,8.76821,-5.6865
57881,57881,Tiégba,11252,6.2328,-5.65306
57892,57892,Okromodou,16922,5.35123,-5.67593
57920,57920,Guézon,20057,6.56696,-7.70203
57967,57967,Dundo,177604,-7.36643,20.81557
57969,57969,Calulo,44000,-10.00055,14.89519
57970,57970,Caconda,15000,-13.73564,15.0618
58395,58395,Shambu,31100,9.56667,37.1
58396,58396,Negēlē,73100,5.31667,39.58333
58397,58397,Metemma,25600,12.95479,36.15549
58398,58398,Raqo,25090,6.41919,45.85251
58399,58399,Gewanē,11279,10.16658,40.64689
58400,58400,‘Alemaya,63700,9.39334,42.00967
58401,58401,Āgaro,52800,7.85,36.65
58402,58402,Abomsa,30400,9.98333,39.98333
58403,58403,Damboya,21800,7.34813,37.95063
58752,58752,Qiryat Mal’akhi,25362,31.72888,34.74632
58756,58756,Jaljūlya,10148,32.1547,34.95372
58757,58757,Haifa,285316,32.81841,34.9885
58758,58758,Hadera,97335,32.44192,34.9039
58761,58761,Dimona,36192,31.07079,35.03269
58762,58762,Beersheba,186600,31.25181,34.7913
58763,58763,Azor,12957,32.0243,34.80632
59003,59003,Obuase,179604,6.20228,-1.66796
59004,59004,Nsawam,48885,5.80893,-0.35026
59005,59005,Mim,36211,6.90412,-2.56114
59224,59224,Najaf,482576,32.02594,44.34625
59241,59241,Javānrūd,38657,34.79611,46.51722
59250,59250,Aghajari,21785,30.7006,49.8315
59687,59687,Dhamār,160114,14.54274,44.40514
59691,59691,Al Bayda,37821,13.98523,45.57272
59692,59692,Jadder Cemetery,10000,15.467,44.17787
59693,59693,Thabazimbi,10365,-24.59165,27.41155
59694,59694,Stutterheim,35510,-32.57076,27.42396
59695,59695,Riversdale,16176,-34.09345,21.25725
59696,59696,Port Elizabeth,967677,-33.96109,25.61494
59697,59697,Nigel,140644,-26.43138,28.47713
59698,59698,Ilinge,10899,-31.97676,27.04267
59699,59699,Bochum,12000,-23.28609,29.13964
59700,59700,Cape Town,4710000,-33.92584,18.42322
59702,59702,Isoka,13122,-10.16062,32.63353
59706,59706,Karoi,34200,-16.80993,29.69247
60109,60109,Ngara,16890,-2.51222,30.65583
60110,60110,Kibakwe,19526,-6.71667,36.36667
60111,60111,Chanika,30905,-5.41667,38.01667
60112,60112,Bukoba,144938,-1.33167,31.81222
60113,60113,Namikupa,11733,-10.83333,39.6
60191,60191,Paidha,28348,2.41669,30.98551
60324,60324,Damascus,1569394,33.5102,36.29128
60333,60333,Ngama,12438,11.78333,17.16667
60334,60334,Bongor,63699,10.28088,15.37425
60335,60335,Kara,104207,9.55111,1.18611
60336,60336,Dapaong,33324,10.86225,0.20762
60378,60378,Gremda,33744,34.79075,10.72059
60483,60483,Butare,89600,-2.59667,29.73944
60484,60484,Ha'il,605930,27.52188,41.69073
60485,60485,Arar,148540,30.97531,41.03808
60488,60488,El Matama,11366,16.7095,33.3565
60623,60623,Kikuyu,323881,-1.24627,36.66291
60624,60624,Kiambu,147870,-1.17139,36.83556
60625,60625,Kapsabet,41997,0.20387,35.105
60626,60626,Iten,42000,0.67028,35.50806
60679,60679,Zillah,10030,28.55099,17.54358
60681,60681,Jādū,12507,31.95506,12.02901
60682,60682,Shahhat,29206,32.8043,21.86605
60685,60685,Oulad Teïma,66832,30.39467,-9.20897
60687,60687,Mohammedia,187708,33.68607,-7.38298
60688,60688,Essaouira,70634,31.5125,-9.77
60690,60690,Azrou,48249,33.43443,-5.22126
60692,60692,Ahfir,19611,34.95368,-2.10027
60702,60702,Maroantsetra,45041,-15.43527,49.73794
60705,60705,Ambohitrolomahitsy,17000,-18.7,47.68333
60714,60714,Yorosso,17447,12.35811,-4.77688
61604,61604,Rehab,10000,32.32341,36.09087
61607,61607,‘Ajlūn,125557,32.33326,35.75279
61617,61617,Monguno,20297,12.67059,13.61224
61618,61618,Misau,13957,11.3137,10.46664
61620,61620,Maiduguri,758700,11.84692,13.15712
61621,61621,Madala,11771,9.10444,7.21333
61622,61622,Katsina-Ala,36722,7.16938,9.28465
61623,61623,Katagum,10602,12.28507,10.35027
61624,61624,Kaiama,21897,9.6053,3.94101
61627,61627,Ise-Ekiti,190063,7.46478,5.42333
61629,61629,Igbor,17666,7.45123,8.60805
61633,61633,Gamawa,13549,12.13379,10.53785
61634,61634,Esuk Oron,112033,4.80293,8.25341
61637,61637,Twon-Brass,11122,4.31231,6.24091
61638,61638,Awgu,23175,6.07278,7.47739
61642,61642,Ado-Ekiti,424340,7.62329,5.22087
61644,61644,Abak,12562,4.98236,7.78922
61890,61890,Téra,21095,14.00776,0.75306
61891,61891,Illéla,16678,14.4605,5.2437
61892,61892,Aguié,13152,13.50601,7.77863
61897,61897,Okigwe,115499,5.82917,7.35056
62194,62194,Tchéboa,35199,9.02871,13.1848
62195,62195,Mora,61523,11.04611,14.14011
62453,62453,Zeribet el Oued,23187,34.68284,6.51109
62470,62470,Sīdī Sālim,44709,31.27133,30.78617
62471,62471,Ras Gharib,44852,28.35831,33.07829
62472,62472,Kafr Şaqr,44529,30.79336,31.62575
62473,62473,Diyarb Najm,80954,30.75438,31.44016
62474,62474,Ar Radīsīyah Qiblī,16190,24.90652,32.88563
62476,62476,Dek’emhāre,10959,15.07,39.0475
62561,62561,Dakpadou,14825,5.25664,-6.06774
62562,62562,Dafrahinou Darinsala,13157,6.43243,-7.08849
62563,62563,Brou akpaousso,10914,6.90916,-4.05582
62586,62586,Diéhiba,15253,6.90152,-7.41376
62668,62668,Tacourably,10160,7.2551,-7.17898
62749,62749,Mavinga,10000,-15.79171,20.35763
62751,62751,Sumbe,205832,-11.20605,13.84371
63113,63113,Al Wajh,26636,26.23094,36.46492
63116,63116,Talodi,13188,10.63246,30.3797
63117,63117,Marabba,12108,12.35,32.18333
63118,63118,El Obeid,393311,13.18421,30.21669
63172,63172,Tukuyu,28398,-9.25,33.65
63173,63173,Nyakabindi,18428,-2.63333,33.98333
63174,63174,Nkoaranga,14738,-3.33333,36.8
63175,63175,Ngudu,22658,-2.96667,33.33333
63176,63176,Mtinko,26725,-4.55,34.85
63177,63177,Kihangara,19082,-2.58333,33.35
63178,63178,Kisasa,10000,-6.17526,35.79266
63228,63228,Mukono,67290,0.35333,32.75528
63229,63229,Kisoro,12400,-1.28538,29.68497
63231,63231,Bwizibwera,79157,-0.59167,30.62861
63232,63232,Busia,43200,0.46588,34.09221
63233,63233,Bundibugyo,16919,0.71117,30.06469
63854,63854,Katima Mulilo,25027,-17.50467,24.27574
63855,63855,Bethanie,10363,-26.49958,17.1599
63860,63860,Tambuwal,20932,12.40592,4.64605
63865,63865,Ode,75463,7.7899,5.7117
63867,63867,Lau,12657,9.20827,11.27541
63871,63871,Koton-Karfe,10709,8.08834,6.79876
63873,63873,Kano,4103000,12.00012,8.51672
63880,63880,Ifo,88272,6.81491,3.19518
63885,63885,Eket,25569,4.64231,7.92438
63887,63887,Doma,15097,8.39307,8.35544
63891,63891,Arochukwu,10776,5.38941,7.91235
64284,64284,eMkhomazi,20410,-30.20674,30.79776
64285,64285,Siyabuswa,26236,-25.11319,29.04454
64286,64286,Richards Bay,252968,-28.78301,32.03768
64287,64287,Reitz,16637,-27.80138,28.42726
64289,64289,Polokwane,123749,-23.90449,29.46885
64290,64290,Parys,71319,-26.9033,27.45727
64292,64292,Mmabatho,76754,-25.85,25.63333
64293,64293,Kroonstad,103992,-27.65036,27.23488
64294,64294,Elliot,11836,-31.33333,27.85
64295,64295,Hermanus,25153,-34.4187,19.23446
64296,64296,Rondebosch,15158,-33.96333,18.47639
64298,64298,Chambishi,11073,-12.63247,28.05367
64315,64315,Garoowe,57300,8.40207,48.48284
64317,64317,Buulobarde,16928,3.85375,45.56744
64319,64319,Torit,20048,4.41177,32.57046
64334,64334,Moundou,196124,8.57437,16.07722
64335,64335,Massaguet,28401,12.47554,15.43647
64450,64450,Singida,232459,-4.81629,34.74358
64451,64451,Same,17455,-4.06667,37.73333
64452,64452,Makuyuni,15516,-4.73333,38.1
64453,64453,Lugoba,16902,-6.45,38.33333
64454,64454,Laela,19185,-8.56667,32.05
65132,65132,Yirga Ch’efē,40600,6.16667,38.2
65133,65133,Maksenyit,25800,12.38333,37.55
65135,65135,Insēno,30500,8.06667,38.46667
65136,65136,Gode,67900,5.95056,43.55186
65137,65137,Batī,37600,11.19152,40.01675
65138,65138,Wegeda,23200,11.21566,38.36452
65552,65552,Reggane,32974,26.71576,0.1714
65554,65554,Messaad,97091,34.15429,3.50309
65556,65556,Charef,27700,34.62098,2.79503
65559,65559,Biskra,204661,34.85038,5.72805
65567,65567,Sinnūris,133532,29.41345,30.86579
65568,65568,Shubrākhīt,41233,31.02795,30.71493
65569,65569,Qūş,84386,25.91544,32.76287
65571,65571,Qillīn,48233,31.0475,30.85487
65572,65572,Naqādah,26774,25.90107,32.72392
65573,65573,Al Badārī,56033,26.99306,31.41605
65574,65574,Abū Ţisht,18194,26.12039,32.09543
65575,65575,Ash-Shaykh Zāyid,95854,30.02,31.0
65576,65576,Massawa,23100,15.60811,39.47455
65850,65850,Kete Krachi,11000,7.79391,-0.0498
65851,65851,Sekondi,285506,4.93422,-1.71454
65858,65858,Kouroussa,36295,10.65,-9.88333
65859,65859,Beyla,19848,8.69011,-8.64869
66123,66123,Mbale,60000,0.08213,34.72139
66125,66125,Kajiado,24678,-1.85238,36.77683
66126,66126,Embu,64979,-0.53987,37.45743
66190,66190,At Tāj,46050,24.20487,23.2857
66191,66191,Al Qubbah,24631,32.75684,22.24106
66192,66192,Zuwarah,33887,32.9312,12.08199
66197,66197,El Jadid,147549,33.25682,-8.50882
66202,66202,Sadabe,17000,-18.63333,47.7
66203,66203,Ifatsy,15000,-22.4,47.75
66205,66205,Ampanihy,40244,-24.6937,44.74581
66718,66718,Sūf,12942,32.31372,35.83713
66897,66897,Qiryat Yam,39897,32.84966,35.06973
66900,66900,Netanya,228204,32.33291,34.85992
66901,66901,Mazkeret Batya,14837,31.85357,34.84646
66903,66903,Jisr ez Zarqā,14930,32.53684,34.9127
66905,66905,Herzliya,97470,32.16627,34.82536
67052,67052,Baghdad,7216000,33.34058,44.40088
67054,67054,An Nu‘mānīyah,110000,32.55621,45.41293
67055,67055,Al Fallūjah,190159,33.34913,43.78599
67056,67056,Al ‘Amārah,323302,31.83561,47.14483
67057,67057,Al Başrah al Qadīmah,2015483,30.50316,47.81507
67059,67059,Shūsh,52284,32.1942,48.2436
67060,67060,Shādegān,37220,30.64924,48.66497
67149,67149,Souza Gare,24994,4.2344,9.6164
67150,67150,Pitoa,33610,9.3839,13.50231
67152,67152,Meïganga,59426,6.51667,14.3
67154,67154,Bafang,54505,5.15705,10.1771
67494,67494,Tenkodogo,61936,11.78,-0.36972
67495,67495,Kindi,16424,12.4386,-2.03279
67497,67497,Karankasso,15474,11.22191,-4.64423
67506,67506,Sé,26627,6.51115,1.82831
67507,67507,Pèrèrè,15927,9.79721,2.98403
67509,67509,Kopargo,28605,9.84108,1.54231
67510,67510,Bassila,46569,9.00814,1.6654
67511,67511,Avrankou,20326,6.55591,2.65123
67641,67641,Goma,432587,-1.67409,29.22845
67642,67642,Basoko,76371,1.23909,23.61598
67643,67643,Babamba,81740,0.18333,27.48333
67644,67644,Bria,47226,6.54233,21.98633
67645,67645,Mouyondzi,18321,-3.99437,13.92719
67646,67646,Kinkala,12411,-4.36139,14.76444
67697,67697,Zaranou,12116,6.4265,-3.36171
67709,67709,Tabou,29469,4.42295,-7.3528
67721,67721,Pélézi,18278,7.28174,-6.81449
67725,67725,Guitry,14836,5.51952,-5.24038
67736,67736,Diabo,11047,7.78959,-5.17102
67741,67741,Bouaké,832371,7.69385,-5.03031
67747,67747,Biéby,21578,6.07873,-3.63548
67751,67751,Baibli,16018,7.17618,-7.29729
67761,67761,Abobo,1340083,5.41613,-4.0159
67767,67767,Touih,20686,5.25604,-6.53249
67780,67780,Nékédé,10157,6.46392,-5.99848
67785,67785,Mignouré,18180,7.4875,-6.78821
67795,67795,Korokaha,10769,9.90059,-5.62764
67804,67804,Manfla,12151,7.41135,-5.91127
68175,68175,Ziway,90500,7.93333,38.71667
68176,68176,Shonē,41900,7.13333,37.95
68177,68177,Nek’emtē,156000,9.08333,36.55
68178,68178,Korem,35600,12.50583,39.52278
68179,68179,Kele,23100,6.08333,38.03333
68180,68180,Degeh Bur,47200,8.22056,43.55722
68181,68181,Ch’elenk’o,20900,9.40139,41.56
68182,68182,Bedēsa,24600,6.83333,38.08333
68183,68183,Amba Giorgis,27300,12.76889,37.62389
68184,68184,Sodo,204100,6.86,37.76159
68185,68185,Wacha,28300,7.15109,35.81703
68284,68284,Touggourt,143270,33.11083,6.07
68290,68290,Rouissat,80784,31.92427,5.35018
68295,68295,El Bayadh,85577,33.68318,1.01927
68296,68296,Debila,36834,33.51667,6.95
68311,68311,Maţāy,82328,28.41866,30.77861
68312,68312,Maghāghah,118223,28.64776,30.841
68313,68313,Kafr Shukr,30948,30.54972,31.24444
68314,68314,Juhaynah,76555,26.67418,31.49686
68315,68315,Al Qanāyāt,70687,30.61927,31.46165
68945,68945,Aţ Ţafīlah,25429,30.83752,35.60442
69125,69125,Yāfā,18905,32.68923,35.27832
69127,69127,Qiryat Tiv‘on,18130,32.71618,35.12494
69129,69129,Kfar Yona,24778,32.31669,34.93507
69130,69130,Jatt,12100,32.39843,35.03933
69132,69132,Binyamina,15847,32.5232,34.94499
69136,69136,Modiin Ilit,76374,31.93221,35.04416
69225,69225,Owendo,95313,0.29123,9.50465
69227,69227,Lambaréné,46605,-0.7001,10.24055
69396,69396,Swedru,54417,5.53711,-0.69984
69398,69398,Goaso,21798,6.80355,-2.5172
69399,69399,Dunkwa,42737,5.95996,-1.77792
69400,69400,Berekum,70536,7.4534,-2.58404
69523,69523,Karbala,1218732,32.61603,44.02488
69536,69536,Aleshtar,27701,33.86419,48.26258
69842,69842,Khān Yūnis,173183,31.34018,34.30627
69850,69850,Bethlehem,29019,31.70487,35.20376
69852,69852,Al ‘Ayzarīyah,17455,31.77078,35.26917
69853,69853,Abū Dīs,11753,31.76215,35.26166
69951,69951,Sagana,13000,-0.66806,37.20875
69952,69952,Marsabit,36289,2.33468,37.99086
69999,69999,Mohale's Hoek,46593,-30.15137,27.47691
70000,70000,Mapoteng,14161,-29.10979,27.9741
70007,70007,Umm al Arānib,10493,26.13386,14.7372
70008,70008,Gharyan,36110,32.17222,13.02028
70010,70010,Al Khums,201943,32.64861,14.26191
70017,70017,Skhirate,44850,33.8527,-7.03171
70022,70022,Vatomandry,16771,-19.33018,48.97791
70024,70024,Ambohidratrimo,25163,-18.818,47.43382
70032,70032,Koulikoro,23919,12.86273,-7.55985
70033,70033,Ké-Macina,15750,13.9641,-5.35791
70052,70052,Bassikounou,10561,15.8656,-5.9468
70053,70053,Aioun,12635,16.6614,-9.6149
70061,70061,Nsanje,21774,-16.91995,35.26199
70062,70062,Kasungu,42555,-13.03333,33.48333
70255,70255,Mutum Biyu,11702,8.64138,10.77355
70257,70257,Magumeri,19363,12.11451,12.8262
70258,70258,Jos,816824,9.92849,8.89212
70260,70260,Ikang,13305,4.78978,8.5316
70262,70262,Ibadan,3649000,7.37756,3.90591
70263,70263,Gombi,19616,10.16756,12.73684
70264,70264,Gaya,20959,11.86064,9.0027
70265,70265,Gandi,13940,12.96358,5.74337
70796,70796,Inhambane,79724,-23.865,35.38333
70797,70797,Swakopmund,25047,-22.67842,14.52663
70798,70798,Okahandja,20879,-21.98333,16.91667
70804,70804,Abalak,13555,15.4509,6.2793
70806,70806,Toungo,11759,8.11733,12.04611
70807,70807,Takai,10748,11.57569,9.1088
70812,70812,Oyan,73622,8.05,4.76667
70828,70828,Tiko,94836,4.075,9.36005
70829,70829,Mutengene,64054,4.0913,9.3144
70830,70830,Mindif,10538,10.39757,14.43626
70831,70831,Kekem,27038,5.15689,10.01996
70834,70834,Banyo,47936,6.75,11.81667
71145,71145,Ziniaré,33296,12.58186,-1.2971
71147,71147,Manga,28615,11.66361,-1.07306
71148,71148,Bama,31215,12.0357,-4.3987
71160,71160,Bujumbura,769317,-3.38193,29.36142
71162,71162,Muyinga,14869,-2.8451,30.3414
71163,71163,Péhonko,37217,10.22746,2.00192
71164,71164,Nikki,66109,9.94009,3.21075
71165,71165,Cobly,24878,10.49222,0.99972
71306,71306,Lubao,37818,-5.38771,25.74885
71307,71307,Bunia,399282,1.55941,30.25224
71309,71309,Mossendjo,19104,-2.94968,12.70423
71311,71311,Dolisie,121000,-4.19834,12.66664
71313,71313,Oyo,20630,-1.165,15.97
71376,71376,Sinfra,245226,6.62103,-5.91144
71386,71386,Oumé,58606,6.38309,-5.41759
71438,71438,Cassanguidi,20000,-7.48367,21.30339
71440,71440,Cahama,12767,-16.28556,14.30962
71741,71741,Gohouo,21824,7.05402,-7.44035
71778,71778,Abongoua,13492,6.6527,-4.10178
71780,71780,Marcory,214061,5.31198,-3.99363
71786,71786,Fronan,21579,8.21494,-5.12549
71872,71872,Séitifla,10422,7.43926,-6.71813
72050,72050,Zabīd,52590,14.1951,43.31518
72051,72051,Saḩar,31859,15.31637,44.3088
72055,72055,Aḑ Ḑāli‘,14760,13.69572,44.73137
72060,72060,Emalahleni,262491,-25.87133,29.23323
72063,72063,Mabopane,110972,-25.49768,28.10065
72064,72064,Ga-Rankuwa,90945,-25.61692,27.99471
72066,72066,Christiana,17523,-27.91402,25.16111
72068,72068,Belfast,11916,-25.68991,30.03504
72070,72070,Atlantis,67491,-33.56668,18.48335
72075,72075,Gwanda,26700,-20.93622,29.00698
72076,72076,Chipinge,34959,-20.18833,32.62365
72477,72477,Pissila,23420,13.16417,-0.8225
72478,72478,Dédougou,63617,12.46338,-3.46075
72479,72479,Dano,25922,11.1464,-3.05784
72480,72480,Aribinda,45818,14.22963,-0.86537
72498,72498,Kirundo,15511,-2.5845,30.0959
72499,72499,Ouessé,15658,8.48639,2.42872
72500,72500,Banté,17682,8.41221,1.88969
72501,72501,Aplahoué,26340,6.93333,1.68333
72575,72575,Palapye,52636,-22.54605,27.12507
72580,72580,Janeng,16853,-25.41667,25.55
72635,72635,Lusambo,49376,-4.97503,23.44391
72636,72636,Kindu,234651,-2.94373,25.92237
72637,72637,Kananga,1247168,-5.89624,22.41659
72638,72638,Kambove,99884,-10.87352,26.59746
72639,72639,Mushie,61336,-3.01728,16.92238
72640,72640,Moanda,128804,-5.92753,12.37148
72642,72642,Bimbo,348802,4.25671,18.41583
72643,72643,Baboua,33739,5.79565,14.82799
72644,72644,Bouansa,27512,-4.21861,13.76167
72645,72645,Nkayi,103000,-4.18396,13.2859
72697,72697,Zata,10877,6.87914,-5.40398
72705,72705,Ouamélhoro,10695,10.33226,-5.62113
72717,72717,San-Pédro,390654,4.74851,-6.6363
72735,72735,Mankono,19597,8.05861,-6.18972
72753,72753,Korhogo,440926,9.45803,-5.62961
72798,72798,Matala,78000,-14.73272,15.03479
72799,72799,Lobito,357950,-12.3644,13.53601
72800,72800,Cuito,355423,-12.38333,16.93333
73086,73086,Kanakono,13127,10.35497,-6.23634
73088,73088,Kamala,10763,8.43434,-2.72108
73092,73092,Guiglo,68113,6.54368,-7.4935
73094,73094,Guépaouo,26111,6.47268,-5.70615
73095,73095,Grébouo,10829,5.66667,-6.33333
73132,73132,Bacanda,11892,5.63331,-4.87758
73134,73134,Atrobou,11091,6.09021,-4.0589
73142,73142,Séguéla,103980,7.96111,-6.67306
73147,73147,Kacoukro,10475,5.29605,-3.37752
73148,73148,Watté,20769,4.9353,-6.77828
73696,73696,Nacala,225034,-14.56257,40.68538
73700,73700,Madaoua,24804,14.073,5.96
73704,73704,Yenagoa,24335,4.92675,6.26764
73705,73705,Wudil,23066,11.80937,8.84422
73707,73707,Umuahia,264662,5.52491,7.49461
73709,73709,Omu-Aran,14477,8.13385,5.10029
73710,73710,Ogbomoso,433030,8.13373,4.24014
73711,73711,Makoko,85840,6.49611,3.38778
73712,73712,Lalupon,81130,7.46791,4.06594
73714,73714,Jimeta,248148,9.27949,12.45819
73719,73719,Ibeto,15565,10.48536,5.14501
73724,73724,Buguma,135404,4.73614,6.86236
73726,73726,Auchi,62907,7.06756,6.2636
73916,73916,Kismayo,234852,-0.35817,42.54536
73928,73928,Manzini,110537,-26.49884,31.38004
73929,73929,Pala,70677,9.3646,14.90725
73930,73930,Massakory,39944,12.99809,15.73195
73932,73932,Atakpamé,80683,7.53333,1.13333
74067,74067,Tanga,393429,-5.06893,39.09875
74068,74068,Nyalikungu,24648,-3.18333,33.78333
74069,74069,Nsunga,20049,-1.14389,31.39472
74070,74070,Ngorongoro,10836,-3.23973,35.48747
74071,74071,Msowero,17861,-6.53333,37.2
74073,74073,Kilosa,91889,-6.83333,36.98333
74075,74075,Kidatu,37542,-7.69916,36.95722
74076,74076,Izazi,18010,-7.2,35.73333
74077,74077,Igunga,35644,-4.28333,33.88333
74163,74163,Ibanda,31000,-0.13398,30.49616
74574,74574,Kibungo,46240,-2.1597,30.5427
74575,74575,Byumba,70593,-1.5763,30.0675
74578,74578,Abqaiq,29474,25.93402,49.6688
74579,74579,Badr Ḩunayn,27257,23.78292,38.79047
74580,74580,Al Qurayn,12013,25.48333,49.6
74582,74582,Sinnar,130122,13.56907,33.56718
74625,74625,Tcholliré,23187,8.4022,14.1698
74626,74626,Nanga Eboko,28518,4.68333,12.36667
74627,74627,Mamfe,20350,5.75132,9.3137
74628,74628,Limbe,131381,4.02356,9.20607
74629,74629,Kribi,93482,2.93725,9.90765
74631,74631,Garoua,34957,9.30143,13.39771
75145,75145,Aïn Sefra,47415,32.75,-0.58333
75146,75146,Adrar,68276,27.87429,-0.29388
75154,75154,Sirs al Layyānah,78168,30.4428,30.96975
75155,75155,Girga,151256,26.33721,31.89295
75156,75156,Alexandria,5263542,31.20176,29.91582
75157,75157,Al Ḩusaynīyah,50651,30.86163,31.91809
75158,75158,Al Bājūr,62961,30.43046,31.03679
75159,75159,Arīsh,199243,31.13159,33.79844
75160,75160,Abū Qurqāş,90266,27.93043,30.83826
75642,75642,Tikil Dingay,28200,12.98417,37.04417
75643,75643,Metahāra,23403,8.9,39.91667
75644,75644,Gelemso,34200,8.81667,40.51667
75645,75645,Bishoftu,207400,8.75225,38.97846
75646,75646,Dabat,28300,12.98417,37.765
75647,75647,Ch’ench’a,27500,6.25,37.56667
75648,75648,Bek’ojī,36800,7.53333,39.25
75649,75649,Aksum,94500,14.12109,38.72337
75815,75815,Kakamega,1867579,0.28422,34.75229
75816,75816,Isebania,23891,-1.22511,34.46385
75817,75817,Butere,11205,0.20694,34.49006
75843,75843,Şabāḩ as Sālim,139163,29.25722,48.05722
75856,75856,Tyre,135204,33.27333,35.19389
75858,75858,Baalbek,30916,34.00583,36.21806
75861,75861,Maseru,359753,-29.31667,27.48333
75881,75881,Sidi Slimane,79437,34.26479,-5.92598
75882,75882,Midelt,45159,32.6852,-4.74512
75889,75889,Agadir,698310,30.42018,-9.59815
75895,75895,Morondava,56671,-20.28869,44.31782
75896,75896,Morombe,23961,-21.74499,43.36055
76470,76470,Umm as Summāq,18274,31.88542,35.8543
76472,76472,Ma'an,50350,30.19624,35.73405
76478,76478,Rukban,85000,33.31405,38.70342
76656,76656,Jaffa,100000,32.05043,34.75224
76660,76660,Qalansuwa,16898,32.28493,34.98106
76662,76662,Nahariyya,58096,33.00892,35.09814
76664,76664,Ganei Tikva,20398,32.05971,34.8732
76666,76666,Bat Yam,129012,32.02379,34.75185
76766,76766,Libreville,846090,0.39241,9.45356
76769,76769,Bitam,33561,2.07597,11.50065
76979,76979,‘Anat al Qadīmah,19719,34.46934,41.94223
76980,76980,Al Kūt,315162,32.5128,45.81817
76981,76981,Sonqor,43174,34.78187,47.59945
76985,76985,Malāyer,176573,34.30158,48.82166
76987,76987,Kangāvar,53414,34.5043,47.9653
76988,76988,Īlām,140940,33.6374,46.4227
77045,77045,Wa,78107,10.06069,-2.50192
77046,77046,Kintampo,53711,8.05627,-1.73058
77047,77047,Foso,20078,5.70119,-1.28657
77111,77111,Tibati,35673,6.46504,12.62843
77112,77112,Maga,24492,10.8434,14.93962
77114,77114,Bélabo,24359,4.93333,13.3
77115,77115,Bafia,74050,4.75,11.23333
77666,77666,Sidi Amrane,29734,33.49885,6.00803
77670,77670,Djelfa,265833,34.67279,3.263
77682,77682,Ţahţā,134314,26.76866,31.50198
77683,77683,Al ‘Āshir min Ramaḑān,246148,30.29636,31.74633
77684,77684,Farshūţ,71013,26.05501,32.16274
77685,77685,Damietta,305920,31.41648,31.81332
77687,77687,Suez,699541,29.97371,32.52627
77688,77688,Al Maţarīyah,162045,31.18287,32.03108
77689,77689,Giza,4367343,30.00944,31.20861
77690,77690,Barentu,15891,15.10582,37.59067
77918,77918,Welench’ītī,31500,8.66667,39.43333
77919,77919,Tarch’a Sodo,24300,7.15139,37.17184
77920,77920,Sendafa,25500,9.15203,39.02335
77921,77921,Mena,22100,6.41667,39.85
77922,77922,Gedeb,24000,9.5725,43.18139
77923,77923,Dēra,30700,8.4,38.85
77924,77924,Digih Habar Es,22000,6.44258,45.98329
78133,78133,Gomon,12759,5.72358,-4.44129
78150,78150,Dianra-Village,14028,8.76437,-6.24411
78159,78159,Bondoukou,141568,8.0402,-2.80003
78161,78161,Bécouéfin,10169,6.48086,-3.84625
78174,78174,Andé,16341,6.78176,-4.08517
78178,78178,Agbaou,10386,6.34136,-3.85433
78180,78180,Aboudé,14828,5.89609,-4.56253
78181,78181,Ahouanou,33939,5.50565,-4.8588
78186,78186,Grand-Zattry,31326,6.1162,-6.53603
78187,78187,Nzianouan,16337,6.01161,-4.82133
78193,78193,Lobogba,13608,5.98014,-6.73576
78283,78283,Tô,16026,11.44379,-2.22548
78301,78301,Missérété,41657,6.55872,2.59063
78456,78456,Tshikapa,634529,-6.41621,20.79995
78457,78457,Lubero,41722,-0.15837,29.23859
78458,78458,Businga,48339,3.33863,20.88577
78459,78459,Likasi,635768,-10.98303,26.7384
78460,78460,Kolwezi,790248,-10.71484,25.46674
78461,78461,Mangai,63713,-4.02328,19.53385
78462,78462,Kasangulu,45400,-4.5833,15.16554
78463,78463,Masina,485167,-4.38361,15.39139
78464,78464,Berbérati,103713,4.26116,15.79216
78465,78465,Baoro,18089,5.66667,15.96667
78524,78524,Tomono,10209,8.32598,-6.10395
78525,78525,Toulépleu Gueré,14098,6.57395,-8.42592
78527,78527,Tiémélékro,10856,6.49214,-4.61985
78537,78537,Sinématiali,13174,9.5841,-5.38476
78589,78589,Lucapa,110000,-8.41915,20.74466
78590,78590,Luau,55432,-10.70727,22.22466
78591,78591,Cabinda,550000,-5.56717,12.19787
78960,78960,Webuye,42642,0.6004,34.77119
78961,78961,Machakos,63767,-1.52233,37.26521
78965,78965,Garba Tula,17443,0.53392,38.51878
78966,78966,Athi River,81302,-1.4563,36.97826
78988,78988,Janūb as Surrah,18496,29.26917,47.97806
78989,78989,Kuwait City,60064,29.36972,47.97833
79025,79025,Wādī 'Utbah,16746,26.09502,13.55744
79031,79031,Khouribga,167673,32.88108,-6.9063
79038,79038,Vohibinany,25311,-17.35,49.03333
79039,79039,Soanindrariny,21000,-19.9,47.23333
79040,79040,Miandrarivo,27000,-19.43333,46.75
79042,79042,Farafangana,36724,-22.82223,47.82615
79049,79049,Kokofata,12985,12.88333,-9.95
79050,79050,Bamako,1297281,12.65,-8.0
79071,79071,Salima,30052,-13.7804,34.4587
79381,79381,Chinde,16500,-18.58111,36.45861
79382,79382,Beira,533825,-19.84361,34.83889
79384,79384,Gouré,14639,13.9835,10.27035
79385,79385,Zuru,24338,11.43522,5.23494
79388,79388,Runka,12665,12.44788,7.30918
79391,79391,Moriki,28735,12.87405,6.48754
79394,79394,Lokoja,60579,7.79688,6.74048
79397,79397,Kaura Namoda,69725,12.59371,6.58648
79398,79398,Katsina,432149,12.99082,7.60177
79399,79399,Kaltungo,12357,9.81998,11.30871
79400,79400,Kachia,30893,9.87342,7.95407
79404,79404,Gusau,226857,12.17024,6.66412
79407,79407,Ekpoma,59618,6.743,6.14029
79408,79408,Egbe,17612,8.21896,5.50757
79409,79409,Bode Saadu,16619,8.939,4.78227
79411,79411,Bida,171656,9.08044,6.0099
79414,79414,Awka,167738,6.21269,7.07199
79416,79416,Amaigbo,127300,5.78917,7.83829
79417,79417,Aliade,10292,7.29627,8.48278
79894,79894,Janīn,34730,32.45943,35.30086
79896,79896,Balāţah,17146,32.21207,35.28561
79898,79898,Az Zuwāydah,16688,31.43954,34.38053
80410,80410,Ibb,234837,13.96667,44.18333
80412,80412,Modimolle,20527,-24.7,28.4
80417,80417,Harrismith,27869,-28.27276,29.12946
80421,80421,Burgersdorp,12548,-30.99766,26.32862
80422,80422,Bothaville,71934,-27.3887,26.61701
80423,80423,Rosebank,10000,-33.95556,18.47417
80424,80424,Mbala,20570,-8.84024,31.36587
80425,80425,Petauke,19296,-14.24117,31.31975
80426,80426,Mufulira,120500,-12.54982,28.24071
80427,80427,Maamba,12251,-17.36667,27.15
80428,80428,Kadoma,116300,-18.33328,29.91534
80774,80774,Marka,230100,1.71594,44.77166
80776,80776,Bosaso,74287,11.28421,49.18158
80788,80788,Izra‘,13882,32.86709,36.25072
80789,80789,‘Irbīn,42474,33.53719,36.36635
80791,80791,Moussoro,35100,13.64436,16.48954
80792,80792,Guelendeng,23320,10.91762,15.55011
80793,80793,Benoy,17285,8.98327,16.31991
80794,80794,Tsévié,55775,6.42611,1.21333
80795,80795,Sotouboua,21054,8.5634,0.98399
80908,80908,Wete,35951,-5.05589,39.72938
80909,80909,Soni,12402,-4.85,38.36667
80910,80910,Nshamba,19815,-1.79833,31.55111
80911,80911,Musoma,164172,-1.5,33.8
80912,80912,Maramba,26531,-5.05,38.61667
80913,80913,Makumbako,53003,-8.85,34.83333
80914,80914,Kamachumu,15701,-1.61861,31.62
80915,80915,Nanganga,17468,-10.38333,39.15
81019,81019,As Sulayyil,24097,20.46067,45.57792
81021,81021,Medina,1300000,24.46861,39.61417
81022,81022,El Fasher,252609,13.62793,25.34936
81109,81109,Mityana,41131,0.4175,32.02278
81110,81110,Kireka,17947,0.3475,32.64917
81113,81113,Pader,11600,3.05,33.21667
81828,81828,Qiryat Ata,59030,32.81149,35.11323
81831,81831,Qiryat ‘Eqron,11001,31.86119,34.82275
81853,81853,Tchibanga,36108,-2.93323,10.98178
81854,81854,Ntoum,62445,0.39051,9.76096
82145,82145,Nāḩīyat Saddat al Hindīyah,30622,32.71557,44.27857
82146,82146,Al Ḩillah,455700,32.46367,44.41963
82152,82152,Alīgūdarz,91041,33.404,49.69179
82154,82154,Ahvaz,841145,31.31901,48.6842
82216,82216,Salaga,25472,8.55083,-0.51875
82217,82217,Kumasi,2544530,6.68848,-1.62443
82278,82278,Eilat,52299,29.55805,34.94821
82279,82279,Deir el Asad,12514,32.93598,35.26998
82472,82472,Kemisē,43800,10.71668,39.86997
82473,82473,Bonga,56000,7.27235,36.24162
82474,82474,Bodītī,64900,6.96667,37.86667
82475,82475,Bambesi,26300,9.75,34.73333
82805,82805,Walvis Bay,52058,-22.9575,14.50528
82810,82810,Ringim,14463,12.15143,9.16216
82817,82817,Kafanchan,79522,9.58126,8.2926
82822,82822,Igbeti,24690,8.74921,4.13113
82827,82827,Elele,20620,5.1009,6.81411
82830,82830,Dapchi,14077,12.49536,11.49977
82831,82831,Boju,12814,7.35572,7.89303
83053,83053,Zabré,21726,11.1825,-0.63222
83054,83054,Toma,15851,12.75844,-2.89879
83070,83070,Savé,31444,8.03424,2.4866
83071,83071,Kpozoun,26688,7.22868,2.21317
83162,83162,Mochudi,50321,-24.41667,26.15
83163,83163,Mahalapye,48431,-23.10407,26.81421
83166,83166,Metsemotlhaba,11617,-24.55139,25.80306
83213,83213,Manono,82465,-7.29862,27.39894
83214,83214,Luebo,45443,-5.35218,21.42192
83215,83215,Kabinda,219396,-6.13791,24.48179
83216,83216,Gandajika,208051,-6.74504,23.95328
83217,83217,Bakwa,100575,4.1263,27.39527
83218,83218,Idiofa,87882,-4.96589,19.59151
83219,83219,Hyosha,74502,0.69781,29.51863
83220,83220,Bambari,83029,5.76795,20.67565
83221,83221,Yaloké,21710,5.31953,17.10114
83222,83222,Kaga-Bandoro,55047,6.98961,19.18744
83282,83282,Yaoudé,13587,6.5588,-7.44612
83315,83315,Manzanoua,13224,6.84346,-3.28625
83565,83565,Penja,21367,4.63911,9.67987
83566,83566,Muyuka,43749,4.2898,9.4103
84001,84001,Mogadishu,2587183,2.03711,45.34375
84003,84003,Balanbale,68000,5.76897,45.76297
84006,84006,Gogrial,44600,8.53324,28.10037
84017,84017,Homs,775404,34.72682,36.72339
84021,84021,Ar Rastan,53152,34.92667,36.73241
84024,84024,Gounou Gaya,29742,9.6294,15.5132
84025,84025,Faya-Largeau,44011,17.9257,19.10428
84026,84026,Amdjarass,29793,16.06666,22.83536
84073,84073,Erriadh,14426,33.82063,10.85394
84207,84207,Buraydah,745353,26.32599,43.97497
84208,84208,Maiurno,28727,13.41667,33.66667
84209,84209,Ad Dindar,15144,13.2,34.16667
84436,84436,Sanaa,1937451,15.35472,44.20667
84444,84444,KwaDukuza,51536,-29.32816,31.28954
84445,84445,Pretoria,1619438,-25.74486,28.18783
84446,84446,Pietermaritzburg,750845,-29.61679,30.39278
84447,84447,Middelburg,18164,-31.49285,25.00633
84448,84448,Mankoeng,12499,-23.9,29.81667
84449,84449,Lydenburg,21695,-25.09598,30.44393
84454,84454,Bredasdorp,14936,-34.53215,20.04031
84455,84455,Bethlehem,83654,-28.23078,28.30707
84459,84459,Bindura,50400,-17.30192,31.33056
84613,84613,Béni Abbès,11416,30.13306,-2.16611
84626,84626,Qalyub,156363,30.17922,31.2056
84627,84627,Nabarūh,59202,31.09755,31.30312
84628,84628,Al Qurayn,94632,30.61618,31.73514
84629,84629,Al Mansurah,621953,31.03637,31.38069
84630,84630,Badr,32940,30.136,31.715
84631,84631,Ain Sukhna,45552,29.60018,32.31671
84747,84747,Kani,11547,8.47807,-6.60509
84751,84751,Guéyo,15080,5.6882,-6.0712
84789,84789,Bagohouo,13441,6.89011,-7.19282
84801,84801,Dibobli,10274,6.73952,-7.02156
84803,84803,Bléniméouin,19689,7.13333,-7.18333
84807,84807,Goh,12186,5.2323,-6.63627
85105,85105,Yaţţā,41425,31.4459,35.09443
85107,85107,Ţammūn,10119,32.28347,35.38367
85220,85220,Nairobi,4397073,-1.28333,36.81667
85221,85221,Makindu,15038,-2.27808,37.81867
85222,85222,Isiolo,78650,0.35462,37.58218
85223,85223,Hola,20912,-1.48256,40.03341
85224,85224,Habaswein,49599,1.01659,39.49122
85255,85255,Hlotse,43967,-28.87185,28.04501
85272,85272,Zalţan,14131,32.94699,11.86668
85273,85273,Al Burayqah,31300,30.40624,19.57386
85281,85281,Tsiombe,29825,-25.3,45.48333
85282,85282,Soalala,15174,-16.1,45.31667
85283,85283,Ihosy,41892,-22.40293,46.12576
85284,85284,Fenoarivo Atsinanana,44199,-17.38095,49.40826
85286,85286,Befandriana,18596,-15.2567,48.54249
85287,85287,Ambatolampy,34198,-19.38333,47.41667
85325,85325,Rumphi,20727,-11.01863,33.85746
85327,85327,Dedza,15608,-14.3779,34.33322
85551,85551,Quilenda,13726,-11.46667,14.13333
85552,85552,Quibala,27128,-10.73366,14.97995
85553,85553,Ondjiva,121537,-17.06667,15.73333
85554,85554,Nharêa,18000,-11.47512,16.96496
85555,85555,Chinguar,26811,-12.55708,16.33805
85890,85890,Lastoursville,14411,-0.81742,12.70818
86043,86043,Yegyi,30311,8.22542,-0.64889
86044,86044,Tema,155782,5.6698,-0.01657
86045,86045,Prestea,35611,5.43385,-2.14295
86046,86046,Lashibi,49223,5.68476,-0.04011
86280,86280,Tel Aviv,432892,32.08088,34.78057
86282,86282,Sderot,27635,31.525,34.59693
86283,86283,Rishon LeTsiyyon,258535,31.97102,34.78939
86284,86284,Ofaqim,34666,31.3141,34.62025
86286,86286,I‘billīn,13305,32.82233,35.19271
86822,86822,Jāwā,10628,31.85247,35.93928
86897,86897,Ash Shaţrah,82732,31.40906,46.1727
87139,87139,Ulenje,12219,-8.93333,33.68333
87140,87140,Nzega,26584,-4.21667,33.18333
87141,87141,Nyakahanga,14611,-1.60333,31.14139
87143,87143,Mtimbira,11122,-8.78333,36.35
87144,87144,Kirando,33111,-7.41667,30.6
87145,87145,Ikungi,19692,-5.13333,34.76667
87146,87146,Dareda,19876,-4.21667,35.55
87147,87147,Bagamoyo,82426,-6.44222,38.90422
87216,87216,Ntungamo,15300,-0.87944,30.26417
87219,87219,Mpigi,11082,0.225,32.31361
87221,87221,Buwenge,15130,0.64996,33.17128
87562,87562,Maua,22121,0.2332,37.94086
87563,87563,Maralal,31350,1.09667,36.69806
87564,87564,Lokichokio,11626,4.20771,34.35378
87565,87565,Ongata Rongai,172569,-1.3953,36.764
87566,87566,Kisumu,397957,-0.10221,34.76171
87567,87567,Kiserian,76903,-1.4275,36.6865
87622,87622,Benghazi,757490,32.11486,20.06859
87623,87623,Al Jawf,42079,24.1989,23.29093
87624,87624,Tiznit,55092,29.69742,-9.73162
87625,87625,Taza,141890,34.21,-4.01
87627,87627,Safi,288163,32.29939,-9.23718
87640,87640,Vangaindrano,40813,-23.35,47.6
87642,87642,Mananjary,26712,-21.23034,48.34173
87643,87643,Iharan̈a,23349,-13.35,50.0
87644,87644,Beloha,23021,-25.16667,45.05
87652,87652,Banamba,30591,13.54773,-7.44808
88165,88165,Karak City,21678,31.16368,35.76204
88371,88371,Moussadou,16725,8.76667,-8.61667
88375,88375,Malabo,155963,3.75578,8.78166
88588,88588,Reẖovot,149392,31.89421,34.81199
88589,88589,Qiryat Bialik,43955,32.8275,35.08583
88590,88590,Naḥf,13113,32.93444,35.31679
88592,88592,Kābūl,14095,32.86856,35.21171
88595,88595,Even Yehuda,13826,32.26959,34.88759
88599,88599,Bet She’an,16800,32.49728,35.49632
88861,88861,Az Zubayr,122676,30.39213,47.70175
88862,88862,Ar Rumaythah,47248,31.52845,45.20377
88863,88863,Imam Qasim,36992,32.29799,44.68282
88864,88864,Nahiyat Ghammas,30909,31.74311,44.6196
88867,88867,Āzādshahr,514102,34.79049,48.57011
88878,88878,Harsīn,57647,34.2721,47.5861
88883,88883,Dehlorān,46002,32.6941,47.2679
88884,88884,Bahār,28645,34.9072,48.4414
88972,88972,Kade,30233,6.09392,-0.83599
88973,88973,Buduburam,63217,5.52314,-0.47718
88974,88974,Bibiani,36487,6.45196,-2.31635
89472,89472,Zinjibār,19879,13.12871,45.38073
89476,89476,Laḩij,23375,13.05667,44.88194
89480,89480,Al Maḩwīt,10593,15.47007,43.54481
89487,89487,Prince Albert,13136,-33.22476,22.02673
89488,89488,Mpumalanga,140121,-29.81292,30.63646
89493,89493,Knysna,68659,-34.03627,23.04713
89494,89494,Klerksdorp,178921,-26.85213,26.66672
89497,89497,Ekuvukeni,14331,-28.46752,30.15513
89498,89498,Duiwelskloof,24572,-23.69339,30.14002
89499,89499,Brits,122497,-25.63473,27.78022
89500,89500,Brandfort,12091,-28.70008,26.45968
89501,89501,Claremont,14531,-33.98056,18.46528
89504,89504,Mazabuka,64006,-15.85601,27.748
90092,90092,Illizi,13029,26.48333,8.46667
90094,90094,El Menia,57344,30.57556,2.88417
90096,90096,Djamaa,34920,33.53388,5.99306
